{
    "location": "울산",
    "count": 34,
    "date": "2025-07-09",
    "item": [
        {
            "name": "울산번영로",
            "address": "울산광역시 남구 삼산로 182 (달동)",
            "latitude": "35.537046784",
            "longitude": "129.327294457"
        },
        {
            "name": "울산대공원",
            "address": "울산광역시 남구 대공원입구로 4 (옥동)",
            "latitude": "35.532330",
            "longitude": "129.293827"
        },
        {
            "name": "울산도산사거리DT",
            "address": "울산광역시 남구 대암로129번길 9-6 (야음동)",
            "latitude": "35.5309416639556",
            "longitude": "129.330232053359"
        },
        {
            "name": "울산시청사거리DT",
            "address": "울산광역시 남구 중앙로 180 (달동)",
            "latitude": "35.537195",
            "longitude": "129.313617"
        },
        {
            "name": "울산남구청DT",
            "address": "울산광역시 남구 번영로 215 (신정동)",
            "latitude": "35.5441545",
            "longitude": "129.32459960000006"
        },
        {
            "name": "울산중리사거리DT",
            "address": "울산광역시 남구 돋질로 310 (삼산동)",
            "latitude": "35.543928",
            "longitude": "129.338651"
        },
        {
            "name": "울산삼산로",
            "address": "울산광역시 남구 삼산로 278 번길 8 (삼산동)",
            "latitude": "35.5384838",
            "longitude": "129.3373025"
        },
        {
            "name": "울산대",
            "address": "울산광역시 남구 대학로84번길 5-3 (무거동)",
            "latitude": "35.542467",
            "longitude": "129.260197"
        },
        {
            "name": "울산디자인거리",
            "address": "울산광역시 남구 삼산중로74번길 30-1, 1~2층 (삼산동)",
            "latitude": "35.540501",
            "longitude": "129.33876"
        },
        {
            "name": "울산신복",
            "address": "울산광역시 남구 대학로 152 (무거동)",
            "latitude": "35.548094723038396",
            "longitude": "129.2627730157469"
        },
        {
            "name": "울산태화강역DT",
            "address": "울산광역시 남구 삼산로 379 (삼산동)",
            "latitude": "35.540197600155174",
            "longitude": "129.3486954600125"
        },
        {
            "name": "울산번영로DT",
            "address": "울산광역시 남구 달삼로 3 (달동)",
            "latitude": "35.53541316",
            "longitude": "129.329300402"
        },
        {
            "name": "울산삼성",
            "address": "울산광역시 남구 삼산로 86 (달동)",
            "latitude": "35.5343805",
            "longitude": "129.3170556"
        },
        {
            "name": "울산선암DT",
            "address": "울산광역시 남구 두왕로 140 (선암동)",
            "latitude": "35.51570123709375",
            "longitude": "129.3100444890187"
        },
        {
            "name": "울산신정DT",
            "address": "울산광역시 남구 문수로 435 (신정동)",
            "latitude": "35.5336116",
            "longitude": "129.3011209"
        },
        {
            "name": "울산호계DT",
            "address": "울산광역시 북구 산업로 1464 (신천동)",
            "latitude": "35.63791557",
            "longitude": "129.3450397"
        },
        {
            "name": "울산북구청DT",
            "address": "울산광역시 북구 산업로 1011 (연암동)",
            "latitude": "35.583407",
            "longitude": "129.359199"
        },
        {
            "name": "울산진장",
            "address": "울산광역시 북구 진장17길 10 (진장동)",
            "latitude": "35.56262984",
            "longitude": "129.356469"
        },
        {
            "name": "울산정자비치DT",
            "address": "울산광역시 북구 동해안로 1601 (산하동)",
            "latitude": "35.62741168",
            "longitude": "129.4411137"
        },
        {
            "name": "북울산삼성",
            "address": "울산광역시 북구 진장유통로 65 (진장동)",
            "latitude": "35.57650058",
            "longitude": "129.3558901"
        },
        {
            "name": "울산송정",
            "address": "울산광역시 북구 화산로 119 (송정동)",
            "latitude": "35.6026125",
            "longitude": "129.3652347"
        },
        {
            "name": "울산 KTX",
            "address": "울산광역시 울주군 삼남읍 도호1길 16",
            "latitude": "35.547868",
            "longitude": "129.141895"
        },
        {
            "name": "울산간절곶DT",
            "address": "울산광역시 울주군 서생면 해맞이로 1216",
            "latitude": "35.3582120826861",
            "longitude": "129.355621183874"
        },
        {
            "name": "울산MBC DT",
            "address": "울산광역시 중구 번영로 434 (복산동)",
            "latitude": "35.561657",
            "longitude": "129.332358"
        },
        {
            "name": "울산성안",
            "address": "울산광역시 중구 성안12길 45 (성안동)",
            "latitude": "35.577829",
            "longitude": "129.324413"
        },
        {
            "name": "울산성남삼거리",
            "address": "울산광역시 중구 젊음의2거리 33 (성남동)",
            "latitude": "35.55311",
            "longitude": "129.320266"
        },
        {
            "name": "울산병영",
            "address": "울산광역시 중구 번영로 580 (남외동)",
            "latitude": "35.568536",
            "longitude": "129.345381"
        },
        {
            "name": "울산약사DT",
            "address": "울산광역시 중구 북부순환도로 754 (약사동)",
            "latitude": "35.573049",
            "longitude": "129.337228"
        },
        {
            "name": "울산국가정원",
            "address": "울산광역시 중구 태화강국가정원길 205 (태화동)",
            "latitude": "35.550041",
            "longitude": "129.297138"
        },
        {
            "name": "현대동구",
            "address": "울산광역시 동구 방어진순환도로 899 (서부동) 현대백화점주차장",
            "latitude": "35.52114999",
            "longitude": "129.4317341"
        },
        {
            "name": "울산일산비치DT",
            "address": "울산광역시 동구 일산진11길 95 (일산동)",
            "latitude": "35.4988643178881",
            "longitude": "129.430994177348"
        },
        {
            "name": "울산대학교병원",
            "address": "울산광역시 동구 대학병원로 30 (서부동)",
            "latitude": "35.520640572",
            "longitude": "129.428934687"
        },
        {
            "name": "울산남목DT",
            "address": "울산광역시 동구 방어진순환도로 1146 (서부동)",
            "latitude": "35.5397841",
            "longitude": "129.4234235"
        },
        {
            "name": "울산주전비치",
            "address": "울산광역시 동구 동해안로 667 (주전동)",
            "latitude": "35.5654435",
            "longitude": "129.4548214"
        }
    ]
}