{
    "location": "전북",
    "count": 40,
    "date": "2025-07-09",
    "item": [
        {
            "name": "전북김제DT",
            "address": "전라북도 김제시 콩쥐팥쥐로 11 (검산동)",
            "latitude": "35.806162378081",
            "longitude": "126.906437024493"
        },
        {
            "name": "전북남원DT",
            "address": "전라북도 남원시 요천로 1477 (쌍교동)",
            "latitude": "35.4038734001655",
            "longitude": "127.382879964388"
        },
        {
            "name": "익산모현",
            "address": "전라북도 익산시 선화로 106 (모현동1가)",
            "latitude": "35.948353",
            "longitude": "126.942392"
        },
        {
            "name": "익산영등DT",
            "address": "전라북도 익산시 무왕로 1005 (영등동)",
            "latitude": "35.959316",
            "longitude": "126.968766"
        },
        {
            "name": "익산영등",
            "address": "전라북도 익산시 무왕로 1052 (영등동)",
            "latitude": "35.958206",
            "longitude": "126.973766"
        },
        {
            "name": "익산어양",
            "address": "전라북도 익산시 하나로 495 (영등동)",
            "latitude": "35.964546872284096",
            "longitude": "126.98022815556479"
        },
        {
            "name": "익산동산DT",
            "address": "전라북도 익산시 평동로 722 (동산동)",
            "latitude": "35.9289580054947",
            "longitude": "126.95837418913407"
        },
        {
            "name": "전주송천DT",
            "address": "전라북도 전주시 덕진구 송천중앙로 228 (송천동2가)",
            "latitude": "35.867469",
            "longitude": "127.121929"
        },
        {
            "name": "전북대병원DT",
            "address": "전라북도 전주시 덕진구 백제대로 616 (금암동)",
            "latitude": "35.841632617452205",
            "longitude": "127.13690781120346"
        },
        {
            "name": "전주혁신도시",
            "address": "전라북도 전주시 덕진구 기지로 68 (중동)",
            "latitude": "35.83811",
            "longitude": "127.059364"
        },
        {
            "name": "전주덕진광장DT",
            "address": "전라북도 전주시 덕진구 기린대로 491 (덕진동1가)",
            "latitude": "35.842878",
            "longitude": "127.124205"
        },
        {
            "name": "전북대",
            "address": "전라북도 전주시 덕진구 명륜4길 12 (덕진동1가)",
            "latitude": "35.84301590170121",
            "longitude": "127.1267709531376"
        },
        {
            "name": "전주에코DT",
            "address": "전라북도 전주시 덕진구 백석로 170 (전미동1가)",
            "latitude": "35.8822190627008",
            "longitude": "127.131900415771"
        },
        {
            "name": "전주에코시티",
            "address": "전라북도 전주시 덕진구 세병2길 10 (송천동2가)",
            "latitude": "35.8730804271739",
            "longitude": "127.124589347394"
        },
        {
            "name": "전주인후DT",
            "address": "전라북도 전주시 덕진구 아중로 135 (인후동1가)",
            "latitude": "35.8257449660112",
            "longitude": "127.164447502421"
        },
        {
            "name": "전주호성DT",
            "address": "전라북도 전주시 덕진구 동부대로 860 (호성동1가)",
            "latitude": "35.863629148295",
            "longitude": "127.150793806447"
        },
        {
            "name": "전주만성DT",
            "address": "전라북도 전주시 덕진구 정여립로 972 (만성동)",
            "latitude": "35.8366124098115",
            "longitude": "127.077815422256"
        },
        {
            "name": "전주IC DT",
            "address": "전라북도 전주시 덕진구 기린대로 1022 (여의동)",
            "latitude": "35.8680183497423",
            "longitude": "127.074447294819"
        },
        {
            "name": "전주아중DT",
            "address": "전라북도 전주시 덕진구 아중로 220 (우아동1가)",
            "latitude": "35.8282296650829",
            "longitude": "127.173161230462"
        },
        {
            "name": "전주시청",
            "address": "전라북도 전주시 완산구 기린대로 213 (서노송동)",
            "latitude": "35.8256779268313",
            "longitude": "127.146605202061"
        },
        {
            "name": "전주평화DT",
            "address": "전라북도 전주시 완산구 모악로 4696 (평화동2가)",
            "latitude": "35.788482",
            "longitude": "127.131075"
        },
        {
            "name": "전주백제대로DT",
            "address": "전라북도 전주시 완산구 백제대로 242 (중화산동2가)",
            "latitude": "35.814654",
            "longitude": "127.123414"
        },
        {
            "name": "전주효자DT",
            "address": "전라북도 전주시 완산구 용머리로 7 (효자동1가)",
            "latitude": "35.805550225683085",
            "longitude": "127.11115287338953"
        },
        {
            "name": "전주서신",
            "address": "전라북도 전주시 완산구 서신로 104 (서신동)",
            "latitude": "35.8345971",
            "longitude": "127.1161323"
        },
        {
            "name": "전주홍산로",
            "address": "전라북도 전주시 완산구 홍산로 238 (효자동2가)",
            "latitude": "35.8148196326794",
            "longitude": "127.106247344355"
        },
        {
            "name": "전주한옥마을",
            "address": "전라북도 전주시 완산구 팔달로 123 (전동)",
            "latitude": "35.81345219113975",
            "longitude": "127.14855781491879"
        },
        {
            "name": "전북도청",
            "address": "전라북도 전주시 완산구 홍산중앙로 22 (효자동3가)",
            "latitude": "35.81562810656606",
            "longitude": "127.10921667059445"
        },
        {
            "name": "전주경원",
            "address": "전라북도 전주시 완산구 전주객사4길 44-18 (고사동)",
            "latitude": "35.819775",
            "longitude": "127.144494"
        },
        {
            "name": "전주신시가지",
            "address": "전라북도 전주시 완산구 우전로 255 (효자동2가)",
            "latitude": "35.817258",
            "longitude": "127.101759"
        },
        {
            "name": "전주이마트",
            "address": "전라북도 전주시 완산구 당산로 111 (서신동)",
            "latitude": "35.83232",
            "longitude": "127.12023"
        },
        {
            "name": "전주효천DT",
            "address": "전라북도 전주시 완산구 천잠로 149 (효자동2가)",
            "latitude": "35.8007884975074",
            "longitude": "127.099306207086"
        },
        {
            "name": "전주예수병원",
            "address": "전북특별자치도 전주시 완산구 서원로 356-1 (중화산동1가)",
            "latitude": "35.8133390781987",
            "longitude": "127.133016713412"
        },
        {
            "name": "전북정읍DT",
            "address": "전라북도 정읍시 충정로 271 (수성동)",
            "latitude": "35.5705106797811",
            "longitude": "126.85186717992"
        },
        {
            "name": "군산나운DT",
            "address": "전라북도 군산시 하나운안2길 4 (나운동)",
            "latitude": "35.962771",
            "longitude": "126.695586"
        },
        {
            "name": "군산수송",
            "address": "전라북도 군산시 수송로 195 (수송동)",
            "latitude": "35.964213",
            "longitude": "126.717207"
        },
        {
            "name": "군산대",
            "address": "전라북도 군산시 황룡로 7 (미룡동)",
            "latitude": "35.945739",
            "longitude": "126.685965"
        },
        {
            "name": "군산이마트",
            "address": "전라북도 군산시 구암3.1로 137 (경암동)",
            "latitude": "35.98267704587059",
            "longitude": "126.73495152434147"
        },
        {
            "name": "군산조촌DT",
            "address": "전라북도 군산시 번영로 133 (조촌동)",
            "latitude": "35.9669574466243",
            "longitude": "126.734627249091"
        },
        {
            "name": "군산수송DT",
            "address": "전라북도 군산시 공단대로 243 (수송동)",
            "latitude": "35.9588366660423",
            "longitude": "126.714630107486"
        },
        {
            "name": "군산디오션시티DT",
            "address": "전라북도 군산시 조촌로 174 (조촌동)",
            "latitude": "35.9795039749136",
            "longitude": "126.73827357602"
        }
    ]
}