{
    "location": "세종",
    "count": 14,
    "date": "2025-07-09",
    "item": [
        {
            "name": "세종다정DT",
            "address": "세종특별자치시 다정북로 223 (다정동)",
            "latitude": "36.494878",
            "longitude": "127.255384"
        },
        {
            "name": "세종보람",
            "address": "세종특별자치시 한누리대로 2165 (보람동) A118,119,120,121,128,129,130,131",
            "latitude": "36.4773322231936",
            "longitude": "127.28651937895552"
        },
        {
            "name": "세종새롬",
            "address": "세종특별자치시  새롬중앙로 64 (새롬동)",
            "latitude": "36.4864669923837",
            "longitude": "127.250851573212"
        },
        {
            "name": "세종어진R",
            "address": "세종특별자치시  한누리대로 499 (어진동)",
            "latitude": "36.50823507458724",
            "longitude": "127.26104660851452"
        },
        {
            "name": "세종종촌",
            "address": "세종특별자치시  도움3로 105-10 (종촌동) 성운프라자",
            "latitude": "36.5041123",
            "longitude": "127.2493812"
        },
        {
            "name": "세종첫마을",
            "address": "세종특별자치시  한누리대로 169 행복타워 1층",
            "latitude": "36.480180791",
            "longitude": "127.26163317"
        },
        {
            "name": "세종이마트",
            "address": "세종특별자치시 금송로 687(가람동 406) 이마트 세종점",
            "latitude": "36.47101163447959",
            "longitude": "127.25108070405918"
        },
        {
            "name": "세종청사",
            "address": "세종특별자치시  도움8로 81 (어진동)",
            "latitude": "36.5045109528531",
            "longitude": "127.270198464097"
        },
        {
            "name": "세종아름",
            "address": "세종특별자치시 아름서1길 13-9 (아름동) 103,104,105,202,203호",
            "latitude": "36.5116353777334",
            "longitude": "127.242571334497"
        },
        {
            "name": "세종반곡",
            "address": "세종특별자치시 한누리대로 1844 (반곡동)",
            "latitude": "36.4978562567888",
            "longitude": "127.31004736092"
        },
        {
            "name": "세종소담",
            "address": "세종특별자치시 소담3로 8 (소담동) 1동  12호,13호,14호,15호,15a호,16호",
            "latitude": "36.485755",
            "longitude": "127.300509"
        },
        {
            "name": "세종예술의전당",
            "address": "세종특별자치시 나성동로 6 (나성동)",
            "latitude": "36.4865520141371",
            "longitude": "127.26971200964753"
        },
        {
            "name": "세종금강DT",
            "address": "세종특별자치시 시청대로 45 (대평동)",
            "latitude": "36.4760536945259",
            "longitude": "127.277497630487"
        },
        {
            "name": "세종충남대학교병원",
            "address": "세종특별자치시 보듬7로 20 (도담동) 헬스케어센터 1층",
            "latitude": "36.5186720854037",
            "longitude": "127.257174097983"
        }
    ]
}