{
    "location": "충북",
    "count": 40,
    "date": "2025-07-09",
    "item": [
        {
            "name": "충북증평",
            "address": "충청북도 증평군 증평읍 광장로 40",
            "latitude": "36.788991615901146",
            "longitude": "127.57892076191992"
        },
        {
            "name": "청주용암DT",
            "address": "충청북도 청주시 상당구 1순환로 1243 (용암동)",
            "latitude": "36.6075093197585",
            "longitude": "127.503947108122"
        },
        {
            "name": "청주용담DT",
            "address": "충청북도 청주시 상당구 산성로 129 (용담동)",
            "latitude": "36.634172",
            "longitude": "127.50511"
        },
        {
            "name": "청주서문",
            "address": "충청북도 청주시 상당구 무심동로392번길 20 (서문동)",
            "latitude": "36.635373",
            "longitude": "127.486041"
        },
        {
            "name": "충북도청",
            "address": "충청북도 청주시 상당구 상당로 66 (문화동)",
            "latitude": "36.634368538924704",
            "longitude": "127.49085453208995"
        },
        {
            "name": "청주동남",
            "address": "충청북도 청주시 상당구 중고개로141번길 13-16 (용암동)",
            "latitude": "36.6154896",
            "longitude": "127.5164368"
        },
        {
            "name": "충주호암DT",
            "address": "충청북도 충주시 중원대로 3245 (호암동)",
            "latitude": "36.95897692587527",
            "longitude": "127.92364691779367"
        },
        {
            "name": "충주시청DT",
            "address": "충청북도 충주시 국원대로 208-1 (금릉동)",
            "latitude": "36.99011210425766",
            "longitude": "127.92864831398995"
        },
        {
            "name": "충주터미널",
            "address": "충청북도 충주시 봉계13길 2 (봉방동)",
            "latitude": "36.98068593523566",
            "longitude": "127.91516575876267"
        },
        {
            "name": "충주연수",
            "address": "충청북도 충주시 계명대로 227 (연수동)",
            "latitude": "36.982721",
            "longitude": "127.939889"
        },
        {
            "name": "충주교현DT",
            "address": "충청북도 충주시 금봉대로 358 (교현동)",
            "latitude": "36.966967415787884",
            "longitude": "127.94732759548142"
        },
        {
            "name": "충북혁신도시",
            "address": "충청북도 음성군 맹동면 원중로 1416",
            "latitude": "36.908675820149845",
            "longitude": "127.54289862447207"
        },
        {
            "name": "제천DT",
            "address": "충청북도 제천시 의림대로 181 (중앙로2가)",
            "latitude": "37.14375193082497",
            "longitude": "128.21318841415066"
        },
        {
            "name": "제천하소DT",
            "address": "충청북도 제천시 용두대로 55 (하소동)",
            "latitude": "37.1358712235011",
            "longitude": "128.19916123148488"
        },
        {
            "name": "제천장락DT",
            "address": "충청북도 제천시 내토로 824 (장락동)",
            "latitude": "37.149280943631545",
            "longitude": "128.2264066671523"
        },
        {
            "name": "청주비하DT",
            "address": "충청북도 청주시 흥덕구 2순환로 1078 (비하동)",
            "latitude": "36.63846817214713",
            "longitude": "127.42220277220897"
        },
        {
            "name": "청주오송",
            "address": "충청북도 청주시 흥덕구 오송읍 오송생명로 222",
            "latitude": "36.6298029985572",
            "longitude": "127.333262487003"
        },
        {
            "name": "청주봉명DT",
            "address": "충청북도 청주시 흥덕구 1순환로 514 (봉명동)",
            "latitude": "36.6467676117862",
            "longitude": "127.46456124364"
        },
        {
            "name": "청주강서",
            "address": "충청북도 청주시 흥덕구 강서로 121 (강서동)",
            "latitude": "36.62536591601303",
            "longitude": "127.42971119306195"
        },
        {
            "name": "청주지웰시티",
            "address": "충청북도 청주시 흥덕구 대농로 43 (복대동) 신영지웰시티 1차 상업시설",
            "latitude": "36.6436572793558",
            "longitude": "127.427019965029"
        },
        {
            "name": "현대충청",
            "address": "충청북도 청주시 흥덕구 직지대로 308 (복대동)",
            "latitude": "36.644407",
            "longitude": "127.426305"
        },
        {
            "name": "청주터미널",
            "address": "충청북도 청주시 흥덕구 풍산로 15 (가경동)",
            "latitude": "36.6263676178251",
            "longitude": "127.432425090508"
        },
        {
            "name": "커넥트현대청주",
            "address": "충청북도 청주시 흥덕구 2순환로 1225 (가경동)",
            "latitude": "36.62681647013941",
            "longitude": "127.43040960985655"
        },
        {
            "name": "오송바이오산업단지",
            "address": "충청북도 청주시 흥덕구 오송읍 오송생명로 159 오송생명로 159",
            "latitude": "36.6326194371358",
            "longitude": "127.327235829116"
        },
        {
            "name": "청주서현",
            "address": "충청북도 청주시 흥덕구 서현로 60 (가경동) 121호,122호,123호,124호",
            "latitude": "36.61781159214528",
            "longitude": "127.42924727083607"
        },
        {
            "name": "청주복대지웰",
            "address": "충청북도 청주시 흥덕구 대농로 52 (복대동)",
            "latitude": "36.64165478986967",
            "longitude": "127.42819980926556"
        },
        {
            "name": "오송파라곤",
            "address": "충청북도 청주시 흥덕구 오송읍 오송생명7로 136 오송생명7로 136 103호,104호",
            "latitude": "36.61982360804547",
            "longitude": "127.3152298025801"
        },
        {
            "name": "청주이마트",
            "address": "충청북도 청주시 서원구 청남로 1853 (미평동)",
            "latitude": "36.6011458",
            "longitude": "127.4746811"
        },
        {
            "name": "청주사직DT",
            "address": "충청북도 청주시 서원구 사직대로 302 (사직동)",
            "latitude": "36.63590622855546",
            "longitude": "127.48115614147971"
        },
        {
            "name": "청주성화",
            "address": "충청북도 청주시 서원구 복대로 5 (개신동)",
            "latitude": "36.6176114",
            "longitude": "127.44608549999998"
        },
        {
            "name": "충북대",
            "address": "충청북도 청주시 서원구 내수동로 113 (사창동)",
            "latitude": "36.633965",
            "longitude": "127.459715"
        },
        {
            "name": "충북대학교병원",
            "address": "충청북도 청주시 서원구 1순환로 776 (개신동)",
            "latitude": "36.62393852300332",
            "longitude": "127.46140013915277"
        },
        {
            "name": "청주분평DT",
            "address": "충청북도 청주시 서원구 1순환로 1154 (분평동)",
            "latitude": "36.605664",
            "longitude": "127.494821"
        },
        {
            "name": "충북대캠퍼스",
            "address": "충청북도 청주시 서원구 충대로 1 (개신동, 충북대학교) 제1학생회관 1층",
            "latitude": "36.627594766636975",
            "longitude": "127.45850672450436"
        },
        {
            "name": "오창호수공원",
            "address": "충청북도 청주시 청원구 오창읍 중심상업1로 20 101,102,103,104호",
            "latitude": "36.712751",
            "longitude": "127.427283"
        },
        {
            "name": "청주율량DT",
            "address": "충청북도 청주시 청원구 충청대로107번길 8 (율량동)",
            "latitude": "36.666230",
            "longitude": "127.493207"
        },
        {
            "name": "오창과학단지",
            "address": "충청북도 청주시 청원구 오창읍 과학산업2로 385",
            "latitude": "36.716466",
            "longitude": "127.423272"
        },
        {
            "name": "청주주성",
            "address": "충청북도 청주시 청원구 주성로279번길 27-19 (주성동)",
            "latitude": "36.671428",
            "longitude": "127.496933"
        },
        {
            "name": "오창2산단",
            "address": "충청북도 청주시 청원구 오창읍 2산단로 114 오창읍 2산단로 114",
            "latitude": "36.732083958975075",
            "longitude": "127.4497792617198"
        },
        {
            "name": "충북혁신덕산",
            "address": "충청북도 진천군 덕산읍 연미1길 11",
            "latitude": "36.89956581505604",
            "longitude": "127.52942665688186"
        }
    ]
}