{
    "location": "전남",
    "count": 35,
    "date": "2025-07-09",
    "item": [
        {
            "name": "전남광양DT",
            "address": "전라남도 광양시 중마중앙로 143",
            "latitude": "34.94319620",
            "longitude": "127.69779243"
        },
        {
            "name": "광양LF",
            "address": "전라남도 광양시 광양읍 순광로 466",
            "latitude": "34.963281",
            "longitude": "127.566205"
        },
        {
            "name": "광양마동DT",
            "address": "전라남도 광양시 백운로 1267 (마동)",
            "latitude": "34.94026920941869",
            "longitude": "127.7057147110068"
        },
        {
            "name": "목포터미널DT",
            "address": "전라남도 목포시 영산로 495 (상동)",
            "latitude": "34.81021774504903",
            "longitude": "126.4171711917061"
        },
        {
            "name": "목포하당",
            "address": "전라남도 목포시 백년대로 293 (상동)",
            "latitude": "34.803958",
            "longitude": "126.419806"
        },
        {
            "name": "목포북항DT",
            "address": "전라남도 목포시 고하대로 694 (산정동)",
            "latitude": "34.8086337",
            "longitude": "126.37326580000001"
        },
        {
            "name": "목포옥암",
            "address": "전라남도 목포시 백년대로375번길 1 (옥암동)",
            "latitude": "34.807386",
            "longitude": "126.4272671"
        },
        {
            "name": "목포평화광장",
            "address": "전라남도 목포시 미항로 137 (상동)",
            "latitude": "34.796986",
            "longitude": "126.43495"
        },
        {
            "name": "목포이마트",
            "address": "전라남도 목포시 옥암로 138 (옥암동)",
            "latitude": "34.81136550491599",
            "longitude": "126.42490364786903"
        },
        {
            "name": "목포용해DT",
            "address": "전라남도 목포시 대양로 133 (용해동)",
            "latitude": "34.82215733585917",
            "longitude": "126.39423138771117"
        },
        {
            "name": "목포해안로",
            "address": "전라남도 목포시 해안로 92 (서산동)",
            "latitude": "34.7800525731563",
            "longitude": "126.37456142456"
        },
        {
            "name": "목포남악",
            "address": "전라남도 무안군 남악3로82번길 11",
            "latitude": "34.812982489899824",
            "longitude": "126.46162043256929"
        },
        {
            "name": "전남도청DT",
            "address": "전라남도 무안군 삼향읍 남악3로 54",
            "latitude": "34.81040843824095",
            "longitude": "126.46047596791077"
        },
        {
            "name": "순천연향",
            "address": "전라남도 순천시 연향번영길 118 (연향동)",
            "latitude": "34.952252",
            "longitude": "127.518725"
        },
        {
            "name": "순천신대",
            "address": "전라남도 순천시 해룡면 향매로 99",
            "latitude": "34.933472016319136",
            "longitude": "127.55024227663804"
        },
        {
            "name": "순천호수공원",
            "address": "전라남도 순천시 왕지2길 17 (왕지동)",
            "latitude": "34.968146",
            "longitude": "127.523261"
        },
        {
            "name": "순천조례",
            "address": "전라남도 순천시 비봉2길 9 (조례동)",
            "latitude": "34.971988529839166",
            "longitude": "127.52095821696358"
        },
        {
            "name": "순천용당DT",
            "address": "전라남도 순천시 중앙로 398 (가곡동)",
            "latitude": "34.9801606",
            "longitude": "127.4853980"
        },
        {
            "name": "순천팔마DT",
            "address": "전라남도 순천시 백강로 23 (연향동)",
            "latitude": "34.9351333",
            "longitude": "127.5216868"
        },
        {
            "name": "순천이마트",
            "address": "전라남도 순천시 팔마로 191 (덕암동)",
            "latitude": "34.942564239748876",
            "longitude": "127.50845173853791"
        },
        {
            "name": "순천왕지DT",
            "address": "전라남도 순천시 순광로 95 (조례동)",
            "latitude": "34.9581451308006",
            "longitude": "127.530532399829"
        },
        {
            "name": "순천오천",
            "address": "전라남도 순천시 순천만정원로 86 (풍덕동)",
            "latitude": "34.93713778929824",
            "longitude": "127.49539546780401"
        },
        {
            "name": "여수해양공원",
            "address": "전라남도 여수시 이순신광장로 192 (종화동)",
            "latitude": "34.738437",
            "longitude": "127.744285"
        },
        {
            "name": "여수학동DT",
            "address": "전라남도 여수시 도원로 271 (학동)",
            "latitude": "34.761510",
            "longitude": "127.660968"
        },
        {
            "name": "여수웅천",
            "address": "전라남도 여수시 예울마루로 37-53 (웅천동)",
            "latitude": "34.746166",
            "longitude": "127.671046"
        },
        {
            "name": "여수둔덕DT",
            "address": "전라남도 여수시 좌수영로 482 (둔덕동)",
            "latitude": "34.768947",
            "longitude": "127.697469"
        },
        {
            "name": "여수여서",
            "address": "전라남도 여수시 여문1로 49 (여서동)",
            "latitude": "34.752883",
            "longitude": "127.704195"
        },
        {
            "name": "여수여천",
            "address": "전라남도 여수시 망마로 39 (학동)",
            "latitude": "34.75984",
            "longitude": "127.667034"
        },
        {
            "name": "더여수돌산DT",
            "address": "전라남도 여수시 돌산읍 돌산로 3549",
            "latitude": "34.727515",
            "longitude": "127.743784"
        },
        {
            "name": "여수죽림",
            "address": "전라남도 여수시 소라면 죽림중앙로 7-39",
            "latitude": "34.7616208",
            "longitude": "127.6337952"
        },
        {
            "name": "여수신월DT",
            "address": "전라남도 여수시 신월로 567 (신월동)",
            "latitude": "34.72469427",
            "longitude": "127.70887073"
        },
        {
            "name": "여수마리나",
            "address": "전라남도 여수시 웅천로 134 (웅천동)",
            "latitude": "34.74037053",
            "longitude": "127.67784699"
        },
        {
            "name": "전남화순DT",
            "address": "전라남도 화순군 화순읍 서양로 478",
            "latitude": "35.0685265672376",
            "longitude": "126.988766609482"
        },
        {
            "name": "전남나주",
            "address": "전라남도 나주시 상야1길 21 (빛가람동)",
            "latitude": "35.022514",
            "longitude": "126.788058"
        },
        {
            "name": "나주혁신DT",
            "address": "전라남도 나주시 빛가람로 838 (빛가람동)",
            "latitude": "35.02127159938712",
            "longitude": "126.8030452133825"
        }
    ]
}