{
    "location": "경북",
    "count": 62,
    "date": "2025-07-09",
    "item": [
        {
            "name": "경산중방DT",
            "address": "경상북도 경산시 경안로 222 (중방동)",
            "latitude": "35.8274054981779",
            "longitude": "128.736778052841"
        },
        {
            "name": "영남대아트센터",
            "address": "경상북도 경산시 대학로 280 (대동) 영남대학교",
            "latitude": "35.8318641359384",
            "longitude": "128.753292001132"
        },
        {
            "name": "영남대중앙도서관",
            "address": "경상북도 경산시 대학로 280 (조영동) 영남대학교",
            "latitude": "35.83332843318061",
            "longitude": "128.7579194015425"
        },
        {
            "name": "영남대",
            "address": "경상북도 경산시 청운로 16, 1~3층 (대동)",
            "latitude": "35.836968",
            "longitude": "128.753065"
        },
        {
            "name": "대구가톨릭대",
            "address": "경상북도 경산시 하양읍 하양로 18",
            "latitude": "35.907786",
            "longitude": "128.812463"
        },
        {
            "name": "경산이마트",
            "address": "경상북도 경산시 옥산로 227 (중산동) 경산이마트",
            "latitude": "35.8346240436798",
            "longitude": "128.720180945967"
        },
        {
            "name": "대구대학교",
            "address": "경상북도 경산시 진량읍 대구대로 201",
            "latitude": "35.8973698748974",
            "longitude": "128.84975826587"
        },
        {
            "name": "경산임당역DT",
            "address": "경상북도 경산시 대학로 208 (계양동)",
            "latitude": "35.8337503248567",
            "longitude": "128.745658380784"
        },
        {
            "name": "경산중산",
            "address": "경상북도 경산시 펜타힐즈로 74 (중산동) 109호,110호,111호,112호",
            "latitude": "35.83029669680521",
            "longitude": "128.71974238234182"
        },
        {
            "name": "경산하양DT",
            "address": "경상북도 경산시 진량읍 대학로 1417",
            "latitude": "35.904849",
            "longitude": "128.823882"
        },
        {
            "name": "경산사동DT",
            "address": "경상북도 경산시 원효로 194 (사동)",
            "latitude": "35.8189231",
            "longitude": "128.7574142"
        },
        {
            "name": "경산무학",
            "address": "경상북도 경산시 하양읍 서사도리9로 21",
            "latitude": "35.9172823645922",
            "longitude": "128.813156044847"
        },
        {
            "name": "경주보문",
            "address": "경상북도 경주시 보문로 537 (천군동)",
            "latitude": "35.83653497682624",
            "longitude": "129.28505564177794"
        },
        {
            "name": "경주터미널DT",
            "address": "경상북도 경주시 태종로 686 (사정동)",
            "latitude": "35.838226",
            "longitude": "129.203324"
        },
        {
            "name": "경주대릉원",
            "address": "경상북도 경주시 첨성로 125 (황남동)",
            "latitude": "35.834026512273645",
            "longitude": "129.21513807542846"
        },
        {
            "name": "경주보문호수DT",
            "address": "경상북도 경주시 보문로 132-6 (북군동)",
            "latitude": "35.8532391",
            "longitude": "129.2686877"
        },
        {
            "name": "경주중앙",
            "address": "경상북도 경주시 원효로 105-1 (노동동)",
            "latitude": "35.842119",
            "longitude": "129.212469"
        },
        {
            "name": "경주보문로DT",
            "address": "경상북도 경주시 보문로 510-6, 외 1번지(신평동 719-220) (천군동)",
            "latitude": "35.83874253765283",
            "longitude": "129.28588251199142"
        },
        {
            "name": "경주용강DT",
            "address": "경상북도 경주시 산업로 4350 (용강동)",
            "latitude": "35.8677384570479",
            "longitude": "129.224454581086"
        },
        {
            "name": "경주충효DT",
            "address": "경상북도 경주시 태종로 406 (충효동)",
            "latitude": "35.84449072532094",
            "longitude": "129.17490852434466"
        },
        {
            "name": "구미상모DT",
            "address": "경상북도 구미시 금오대로 439 (상모동)",
            "latitude": "36.0823172",
            "longitude": "128.35638470000003"
        },
        {
            "name": "구미도량DT",
            "address": "경상북도 구미시 야은로 312 (도량동)",
            "latitude": "36.138474",
            "longitude": "128.316815"
        },
        {
            "name": "구미옥계",
            "address": "경상북도 구미시 옥계북로 20 (양포동)",
            "latitude": "36.138285",
            "longitude": "128.419563"
        },
        {
            "name": "구미시청DT",
            "address": "경상북도 구미시 송정대로 27 (송정동)",
            "latitude": "36.1176314",
            "longitude": "128.34160680000002"
        },
        {
            "name": "구미금오산DT",
            "address": "경상북도 구미시 금오산로 205 (남통동)",
            "latitude": "36.12245",
            "longitude": "128.323746"
        },
        {
            "name": "구미인동",
            "address": "경상북도 구미시 인동가산로 9-3, 노블레스타워 1층 (황상동)",
            "latitude": "36.10782365568934",
            "longitude": "128.41849850237634"
        },
        {
            "name": "구미공단",
            "address": "경상북도 구미시 1공단로 212, HALLA SIGMA VALLEY 106 (공단동)",
            "latitude": "36.10177277179551",
            "longitude": "128.3858543974459"
        },
        {
            "name": "구미인의DT",
            "address": "경상북도 구미시 인동북길 149 (인의동)",
            "latitude": "36.095564",
            "longitude": "128.431144"
        },
        {
            "name": "구미광평DT",
            "address": "경상북도 구미시 구미대로 188 (광평동)",
            "latitude": "36.10374",
            "longitude": "128.36359"
        },
        {
            "name": "구미문성DT",
            "address": "경상북도 구미시 고아읍 들성로 207",
            "latitude": "36.160829790049874",
            "longitude": "128.34304579748507"
        },
        {
            "name": "구미확장단지",
            "address": "경상북도 구미시 산동읍 신당1로4길 19",
            "latitude": "36.15595439679874",
            "longitude": "128.43002408187394"
        },
        {
            "name": "상주무양DT",
            "address": "경상북도 상주시 영남제일로 1683 (무양동)",
            "latitude": "36.4261853415948",
            "longitude": "128.157202124448"
        },
        {
            "name": "영주가흥",
            "address": "경상북도 영주시 영주로 90 (가흥동)",
            "latitude": "36.82291130042651",
            "longitude": "128.61023450678186"
        },
        {
            "name": "경북도청대로",
            "address": "경상북도 예천군 호명면 수변로 113",
            "latitude": "36.5747342643423",
            "longitude": "128.485495539219"
        },
        {
            "name": "포항쌍용DT",
            "address": "경상북도 포항시 남구 중흥로 122 (상도동)",
            "latitude": "36.0155",
            "longitude": "129.352589"
        },
        {
            "name": "포항오천",
            "address": "경상북도 포항시 남구 오천읍 원동로 15",
            "latitude": "35.9642032",
            "longitude": "129.4027158"
        },
        {
            "name": "포항대이",
            "address": "경상북도 포항시 남구 포스코대로 124 (대잠동)",
            "latitude": "36.025372",
            "longitude": "129.339307"
        },
        {
            "name": "포항이마트",
            "address": "경상북도 포항시 남구 냉천로 10, 이마트 포항점 1층 (인덕동)",
            "latitude": "35.9912207539553",
            "longitude": "129.398507950192"
        },
        {
            "name": "포항시청",
            "address": "경상북도 포항시 남구 시청로 5 (대잠동)",
            "latitude": "36.01821259088287",
            "longitude": "129.3419824235155"
        },
        {
            "name": "포항송도",
            "address": "경상북도 포항시 남구 송도해안길 54 (송도동)",
            "latitude": "36.0356471",
            "longitude": "129.3794457"
        },
        {
            "name": "포항IC DT",
            "address": "경상북도 포항시 남구 희망대로 353 (이동)",
            "latitude": "36.0354586",
            "longitude": "129.3329279"
        },
        {
            "name": "포항세명기독병원",
            "address": "경상북도 포항시 남구 포스코대로 351 (대도동)",
            "latitude": "36.017709992582596",
            "longitude": "129.3619720590949"
        },
        {
            "name": "포항포스코DT",
            "address": "경상북도 포항시 남구 동해안로6213번길 15-15 (동촌동)",
            "latitude": "35.9965777972114",
            "longitude": "129.387640994648"
        },
        {
            "name": "김천구미역",
            "address": "경상북도 김천시 혁신3로 26 (율곡동)",
            "latitude": "36.116366",
            "longitude": "128.181653"
        },
        {
            "name": "김천시청DT",
            "address": "경상북도 김천시 시청로 47 (대신동)",
            "latitude": "36.132607850006174",
            "longitude": "128.1176702232294"
        },
        {
            "name": "김천부곡DT",
            "address": "경상북도 김천시 시민로 47 (부곡동)",
            "latitude": "36.12816",
            "longitude": "128.1013"
        },
        {
            "name": "안동이마트",
            "address": "경상북도 안동시 옥동1길 2 (옥동)",
            "latitude": "36.558505",
            "longitude": "128.699308"
        },
        {
            "name": "안동병원",
            "address": "경상북도 안동시 앙실로 11 (수상동)",
            "latitude": "36.547024",
            "longitude": "128.70064"
        },
        {
            "name": "안동시청",
            "address": "경상북도 안동시 서동문로 173 (삼산동)",
            "latitude": "36.5663574",
            "longitude": "128.7311385"
        },
        {
            "name": "안동강변DT",
            "address": "경상북도 안동시 육사로 327 (법흥동)",
            "latitude": "36.5622204986042",
            "longitude": "128.739846812428"
        },
        {
            "name": "안동옥동",
            "address": "경상북도 안동시 광명로 166 (옥동)",
            "latitude": "36.5622894296505",
            "longitude": "128.701536314643"
        },
        {
            "name": "영천완산DT",
            "address": "경상북도 영천시 영화로 272 (완산동)",
            "latitude": "35.9670208",
            "longitude": "128.9488634"
        },
        {
            "name": "포항죽도DT",
            "address": "경상북도 포항시 북구 새천년대로 486 699-1 에스오일",
            "latitude": "36.018521",
            "longitude": "129.347918"
        },
        {
            "name": "포항장성DT",
            "address": "경상북도 포항시 북구 새천년대로 1255 (장성동)",
            "latitude": "36.074535",
            "longitude": "129.384214"
        },
        {
            "name": "포항양덕",
            "address": "경상북도 포항시 북구 장량로 162 (양덕동)",
            "latitude": "36.081632851239085",
            "longitude": "129.39813641435407"
        },
        {
            "name": "포항중앙",
            "address": "경상북도 포항시 북구 불종로 41 (신흥동)",
            "latitude": "36.038713",
            "longitude": "129.364099"
        },
        {
            "name": "포항영일대비치",
            "address": "경상북도 포항시 북구 삼호로 186 (항구동)",
            "latitude": "36.054982075925224",
            "longitude": "129.37710253701482"
        },
        {
            "name": "포항법원DT",
            "address": "경상북도 포항시 북구 신덕로 287 (장성동)",
            "latitude": "36.08826626281696",
            "longitude": "129.38493989370951"
        },
        {
            "name": "포항화진해수욕장",
            "address": "경상북도 포항시 북구 송라면 동해대로3218번길 40 (송라면)",
            "latitude": "36.2515524885638",
            "longitude": "129.373347731806"
        },
        {
            "name": "포항중앙로DT",
            "address": "경상북도 포항시 북구 중앙로 197 (죽도동)",
            "latitude": "36.030707",
            "longitude": "129.366266"
        },
        {
            "name": "포항초곡DT",
            "address": "경상북도 포항시 북구 흥해읍 동해대로 1354",
            "latitude": "36.0940736477798",
            "longitude": "129.343182672234"
        },
        {
            "name": "포항두호DT",
            "address": "경상북도 포항시 북구 새천년대로 1031 (창포동)",
            "latitude": "36.060950403438014",
            "longitude": "129.3702025520144"
        }
    ]
}