{
    "location": "제주",
    "count": 33,
    "date": "2025-07-09",
    "item": [
        {
            "name": "제주신화월드R",
            "address": "제주특별자치도 서귀포시 안덕면 신화역사로304번길 38 B1-29",
            "latitude": "33.3068460968274",
            "longitude": "126.317477950826"
        },
        {
            "name": "제주에듀시티",
            "address": "제주특별자치도 서귀포시 대정읍 에듀시티로 36",
            "latitude": "33.291788",
            "longitude": "126.284407"
        },
        {
            "name": "제주성산DT",
            "address": "제주특별자치도 서귀포시 성산읍 일출로 80",
            "latitude": "33.449718",
            "longitude": "126.9207013"
        },
        {
            "name": "제주중문DT",
            "address": "제주특별자치도 서귀포시 천제연로 95(색달동)",
            "latitude": "33.255226",
            "longitude": "126.4159053"
        },
        {
            "name": "제주송악산",
            "address": "제주특별자치도 서귀포시 대정읍 형제해안로 322",
            "latitude": "33.2067772259681",
            "longitude": "126.289973082566"
        },
        {
            "name": "서귀포DT",
            "address": "제주특별자치도 서귀포시 일주서로 11 (강정동)",
            "latitude": "33.2492775",
            "longitude": "126.50652289999993"
        },
        {
            "name": "성산일출봉",
            "address": "제주특별자치도 서귀포시 성산읍 일출로 284-5 1,2층",
            "latitude": "33.462865",
            "longitude": "126.935544"
        },
        {
            "name": "제주중문",
            "address": "제주특별자치도 서귀포시 중문관광로110번길 32 (색달동)",
            "latitude": "33.251128",
            "longitude": "126.412752"
        },
        {
            "name": "서귀포올레",
            "address": "제주특별자치도 서귀포시 중정로 69 (서귀동)",
            "latitude": "33.2483024645772",
            "longitude": "126.563777617613"
        },
        {
            "name": "제주서귀포토평DT",
            "address": "제주특별자치도 서귀포시 일주동로 8516 (토평동)",
            "latitude": "33.255207",
            "longitude": "126.5776479"
        },
        {
            "name": "제주모슬포DT",
            "address": "제주특별자치도 서귀포시 대정읍 일주서로 2549",
            "latitude": "33.2272873",
            "longitude": "126.2578882"
        },
        {
            "name": "제주서귀포남원DT",
            "address": "제주특별자치도 서귀포시 남원읍 일주동로 7129",
            "latitude": "33.2828825",
            "longitude": "126.718877"
        },
        {
            "name": "제주도남DT",
            "address": "제주특별자치도 제주시 연북로 394 (도남동)",
            "latitude": "33.4803417",
            "longitude": "126.5235565"
        },
        {
            "name": "제주협재",
            "address": "제주특별자치도 제주시 한림읍 한림로 337",
            "latitude": "33.393839",
            "longitude": "126.24049"
        },
        {
            "name": "제주외도DT",
            "address": "제주특별자치도 제주시 일주서로 7300 (외도일동)",
            "latitude": "33.4923328892",
            "longitude": "126.4270663"
        },
        {
            "name": "제주삼화DT",
            "address": "제주특별자치도 제주시 연삼로 884 (도련일동)",
            "latitude": "33.5117687",
            "longitude": "126.5804734"
        },
        {
            "name": "제주시청",
            "address": "제주특별자치도 제주시 중앙로 215 (이도이동)",
            "latitude": "33.500516",
            "longitude": "126.529711"
        },
        {
            "name": "제주애월DT",
            "address": "제주특별자치도 제주시 애월읍 애월해안로 376",
            "latitude": "33.47278",
            "longitude": "126.348739"
        },
        {
            "name": "제주칠성",
            "address": "제주특별자치도 제주시 관덕로 55 (일도일동)",
            "latitude": "33.513349",
            "longitude": "126.5252435"
        },
        {
            "name": "제주노형",
            "address": "제주특별자치도 제주시 도령로 27 (노형동)",
            "latitude": "33.4878111",
            "longitude": "126.4818612"
        },
        {
            "name": "제주용담DT",
            "address": "제주특별자치도 제주시 서해안로 380 (용담삼동) 화이트하우스",
            "latitude": "33.512345",
            "longitude": "126.484564"
        },
        {
            "name": "신제주이마트",
            "address": "제주특별자치도 제주시 1100로 3348, 신제주이마트 1층 (노형동)",
            "latitude": "33.4847893",
            "longitude": "126.4803463"
        },
        {
            "name": "제주세화DT",
            "address": "제주특별자치도 제주시 구좌읍 일주동로 3121",
            "latitude": "33.5229969",
            "longitude": "126.8530933"
        },
        {
            "name": "제주노형로",
            "address": "제주특별자치도 제주시 노형로 376 (노형동)",
            "latitude": "33.4834410103164",
            "longitude": "126.476159449097"
        },
        {
            "name": "제주노형DT",
            "address": "제주특별자치도 제주시 월랑로 68 (노형동)",
            "latitude": "33.4908499861488",
            "longitude": "126.474278374413"
        },
        {
            "name": "제주한라수목원DT",
            "address": "제주특별자치도 제주시 수목원서길 3-5 (노형동)",
            "latitude": "33.468923784050744",
            "longitude": "126.48446031290773"
        },
        {
            "name": "제주서해안로DT",
            "address": "제주특별자치도 제주시 서해안로 624 (용담삼동)",
            "latitude": "33.5167857",
            "longitude": "126.5035553"
        },
        {
            "name": "제주일도DT",
            "address": "제주특별자치도 제주시 동광로 130 (일도이동)",
            "latitude": "33.5073284",
            "longitude": "126.5408980"
        },
        {
            "name": "제주공항DT",
            "address": "제주특별자치도 제주시 월성로 42 (용담이동)",
            "latitude": "33.5005664",
            "longitude": "126.5054842"
        },
        {
            "name": "제주금악DT",
            "address": "제주특별자치도 제주시 한림읍 평화로 1360-2",
            "latitude": "33.3479439704936",
            "longitude": "126.359305043849"
        },
        {
            "name": "제주한담해변DT",
            "address": "제주특별자치도 제주시 애월읍 일주서로 6142",
            "latitude": "33.458182897356984",
            "longitude": "126.31123001840102"
        },
        {
            "name": "더제주송당파크R",
            "address": "제주특별자치도 제주시 구좌읍 비자림로 1189",
            "latitude": "33.4354457",
            "longitude": "126.7313926"
        },
        {
            "name": "제주평화로DT",
            "address": "제주특별자치도 제주시 노형로 37 (해안동)",
            "latitude": "33.46329278001417",
            "longitude": "126.45099791468475"
        }
    ]
}