{
    "location": "대전",
    "count": 71,
    "date": "2025-07-09",
    "item": [
        {
            "name": "대전한남대DT",
            "address": "대전광역시 대덕구 한밭대로 1122 (중리동)",
            "latitude": "36.35849",
            "longitude": "127.42331"
        },
        {
            "name": "대전IC DT",
            "address": "대전광역시 대덕구 동서대로 1776 (비래동)",
            "latitude": "36.35423933207529",
            "longitude": "127.44425907044812"
        },
        {
            "name": "대전신탄진DT",
            "address": "대전광역시 대덕구 대덕대로 1544 (석봉동)",
            "latitude": "36.44866030000001",
            "longitude": "127.41998309999997"
        },
        {
            "name": "대전송촌",
            "address": "대전광역시 대덕구 송촌북로36번길 36, 1층 (송촌동)",
            "latitude": "36.36623665994678",
            "longitude": "127.43802612927476"
        },
        {
            "name": "신탄진금강DT",
            "address": "대전광역시 대덕구 신탄진로 866 (신탄진동)",
            "latitude": "36.454619",
            "longitude": "127.42882"
        },
        {
            "name": "대전터미널DT",
            "address": "대전광역시 동구 동서대로 1658 (성남동)",
            "latitude": "36.347995",
            "longitude": "127.434241"
        },
        {
            "name": "대전판암DT",
            "address": "대전광역시 동구 옥천로 118 (판암동)",
            "latitude": "36.317013",
            "longitude": "127.453623"
        },
        {
            "name": "대전가오",
            "address": "대전광역시 동구 동구청로 101 (가오동)",
            "latitude": "36.3070199",
            "longitude": "127.4561304"
        },
        {
            "name": "대전신흥역DT",
            "address": "대전광역시 동구 옥천로 89 (판암동)",
            "latitude": "36.3189576",
            "longitude": "127.4511473"
        },
        {
            "name": "대전용운",
            "address": "대전광역시 동구 동부로 178 (용운동)",
            "latitude": "36.3289964",
            "longitude": "127.4671156"
        },
        {
            "name": "대전용전DT",
            "address": "대전광역시 동구 한밭대로 1239 (용전동)",
            "latitude": "36.357196",
            "longitude": "127.435505"
        },
        {
            "name": "대전복합터미널",
            "address": "대전광역시 동구 동서대로 1689 (용전동)",
            "latitude": "36.350137495562045",
            "longitude": "127.4373371377735"
        },
        {
            "name": "대전스타일마켓",
            "address": "대전광역시 동구 동서대로 1689, 2층 (용전동)",
            "latitude": "36.350196192921174",
            "longitude": "127.43730404515172"
        },
        {
            "name": "대전정부청사역",
            "address": "대전광역시 서구 한밭대로 755 (둔산동)",
            "latitude": "36.358046",
            "longitude": "127.382279"
        },
        {
            "name": "대전건양대병원",
            "address": "대전광역시 서구 관저동로 170 (관저동)1층",
            "latitude": "36.307512298763946",
            "longitude": "127.34099928616096"
        },
        {
            "name": "대전탄방역",
            "address": "대전광역시 서구 문정로2번길 95 (탄방동)",
            "latitude": "36.343242",
            "longitude": "127.385313"
        },
        {
            "name": "대전복수",
            "address": "대전광역시 서구 복수남로 28 (복수동)",
            "latitude": "36.298345",
            "longitude": "127.37824"
        },
        {
            "name": "대전둔산남로",
            "address": "대전광역시 서구 둔산남로 100 (탄방동)",
            "latitude": "36.348893",
            "longitude": "127.388665"
        },
        {
            "name": "대전둔산로",
            "address": "대전광역시 서구 대덕대로241번길 35 (둔산동)",
            "latitude": "36.354233",
            "longitude": "127.377273"
        },
        {
            "name": "대전법원",
            "address": "대전광역시 서구 둔산로123번길 43 (둔산동)",
            "latitude": "36.353315",
            "longitude": "127.387437"
        },
        {
            "name": "대전가수원DT",
            "address": "대전광역시 서구 계백로 1128 (가수원동)",
            "latitude": "36.30375890149987",
            "longitude": "127.34879882532829"
        },
        {
            "name": "대전수침교DT",
            "address": "대전광역시 서구 계룡로 692 (용문동)",
            "latitude": "36.3349683",
            "longitude": "127.39672889999997"
        },
        {
            "name": "대전관저",
            "address": "대전광역시 서구 관저로 142 (관저동)",
            "latitude": "36.2987183121456",
            "longitude": "127.33806920360844"
        },
        {
            "name": "대전대덕로",
            "address": "대전광역시 서구 대덕대로234번길 18 (둔산동)",
            "latitude": "36.353466",
            "longitude": "127.380591"
        },
        {
            "name": "대전목원대",
            "address": "대전광역시 서구 동서대로 682 (도안동)",
            "latitude": "36.33192084282981",
            "longitude": "127.33859963492131"
        },
        {
            "name": "대전둔산",
            "address": "대전광역시 서구 대덕대로 189 (둔산동)",
            "latitude": "36.3502188",
            "longitude": "127.3772612"
        },
        {
            "name": "대전만년",
            "address": "대전광역시 서구 만년로 81 (만년동)",
            "latitude": "36.367606",
            "longitude": "127.382002"
        },
        {
            "name": "대전시청사거리",
            "address": "대전광역시 서구 둔산남로 50 (탄방동)",
            "latitude": "36.348036",
            "longitude": "127.383509"
        },
        {
            "name": "대전월평",
            "address": "대전광역시 서구 청사로123번길 25 (월평동)",
            "latitude": "36.361008",
            "longitude": "127.377288"
        },
        {
            "name": "둔산은하수",
            "address": "대전광역시 서구 둔산로31번길 28, 금정빌딩 1층 (둔산동)",
            "latitude": "36.3529477",
            "longitude": "127.3777879"
        },
        {
            "name": "대전탄방",
            "address": "대전광역시 서구 문정로 78, 정우빌딩 1층 (탄방동)",
            "latitude": "36.3463971",
            "longitude": "127.38788750000003"
        },
        {
            "name": "대전시청역",
            "address": "대전광역시 서구 둔산로 142 (둔산동)",
            "latitude": "36.35100366164323",
            "longitude": "127.38949940834028"
        },
        {
            "name": "대전호텔",
            "address": "대전광역시 서구 둔산중로134번길 13, 토요코인호텔 1층  (둔산동)",
            "latitude": "36.35905916517615",
            "longitude": "127.3877262497239"
        },
        {
            "name": "월평트레이더스",
            "address": "대전광역시 서구 한밭대로 580 (월평동)",
            "latitude": "36.3576004219004",
            "longitude": "127.363002855066"
        },
        {
            "name": "대전시청역8번출구",
            "address": "대전광역시 서구 둔산중로46번길 10 (둔산동)",
            "latitude": "36.3505714098596",
            "longitude": "127.387407431667"
        },
        {
            "name": "둔산대덕대로",
            "address": "대전광역시 서구 대덕대로 200 (둔산동), 1층",
            "latitude": "36.35073270678997",
            "longitude": "127.37846905986014"
        },
        {
            "name": "둔산삼성스토어",
            "address": "대전광역시 서구 대덕대로 254 삼성전자 메가스토어 대전본점 1층  (둔산동)",
            "latitude": "36.3554336798685",
            "longitude": "127.379975361484"
        },
        {
            "name": "대전갈마DT",
            "address": "대전광역시 서구 계룡로 384 (갈마동)",
            "latitude": "36.351481343331905",
            "longitude": "127.37049050661208"
        },
        {
            "name": "대전용문DT",
            "address": "대전광역시 서구 도산로 336 (용문동)",
            "latitude": "36.3350093",
            "longitude": "127.3897099"
        },
        {
            "name": "갤러리아타임월드",
            "address": "대전광역시 서구 대덕대로 211 (둔산동)",
            "latitude": "36.351861",
            "longitude": "127.378233"
        },
        {
            "name": "도안레이크타워",
            "address": "대전광역시 서구 도안동로 234-54 (도안동) 105~109호",
            "latitude": "36.32583637476658",
            "longitude": "127.34852967395174"
        },
        {
            "name": "둔산이랜드피어",
            "address": "대전광역시 서구 한밭대로 817 (둔산동)",
            "latitude": "36.358090462917595",
            "longitude": "127.38978539851661"
        },
        {
            "name": "대전관저네거리",
            "address": "대전광역시 서구 계백로 993 (관저동) 102-1호",
            "latitude": "36.30183062836115",
            "longitude": "127.3345171440713"
        },
        {
            "name": "대전반석역",
            "address": "대전광역시 유성구 북유성대로 303 (반석동)",
            "latitude": "36.391646",
            "longitude": "127.31422"
        },
        {
            "name": "대전도안DT",
            "address": "대전광역시 유성구 도안대로 573 (봉명동)",
            "latitude": "36.3513576",
            "longitude": "127.3402518"
        },
        {
            "name": "대전유성구청",
            "address": "대전광역시 유성구 어은로 42 (어은동)",
            "latitude": "36.362206",
            "longitude": "127.357705"
        },
        {
            "name": "대전지족",
            "address": "대전광역시 유성구 지족로 373 (지족동)",
            "latitude": "36.38720540000001",
            "longitude": "127.3175549"
        },
        {
            "name": "대전유성",
            "address": "대전광역시 유성구 온천서로 2 (봉명동)",
            "latitude": "36.3545222",
            "longitude": "127.3395544"
        },
        {
            "name": "대전전민",
            "address": "대전광역시 유성구 유성대로 1722 (전민동)",
            "latitude": "36.39943969999999",
            "longitude": "127.40052530000002"
        },
        {
            "name": "대전관평동",
            "address": "대전광역시 유성구 테크노중앙로 68",
            "latitude": "36.4255141",
            "longitude": "127.39263"
        },
        {
            "name": "대전조이마루",
            "address": "대전광역시 유성구 엑스포로 97번길 40",
            "latitude": "36.37645528250739",
            "longitude": "127.39080196911213"
        },
        {
            "name": "대전노은",
            "address": "대전광역시 유성구 은구비남로33번길 26, 1~2층 (지족동)",
            "latitude": "36.373444",
            "longitude": "127.319446"
        },
        {
            "name": "충남대정문",
            "address": "대전광역시 유성구 대학로 82 (궁동)",
            "latitude": "36.36066",
            "longitude": "127.34464"
        },
        {
            "name": "대전테크노밸리",
            "address": "대전광역시 유성구 테크노4로 105 (관평동)",
            "latitude": "36.425176276",
            "longitude": "127.389607513"
        },
        {
            "name": "대전문지",
            "address": "대전광역시 유성구 문지로299번길 56 (문지동)",
            "latitude": "36.3924494586684",
            "longitude": "127.405523409052"
        },
        {
            "name": "신세계대전R",
            "address": "대전광역시 유성구 엑스포로 1 (도룡동), 대전신세계 백화점 5F",
            "latitude": "36.37526851353958",
            "longitude": "127.38158002712087"
        },
        {
            "name": "대전현대아울렛",
            "address": "대전광역시 유성구 테크노중앙로 123 (용산동)",
            "latitude": "36.424",
            "longitude": "127.398625"
        },
        {
            "name": "유성선병원",
            "address": "대전광역시 유성구 북유성대로 93 (지족동),  B1",
            "latitude": "36.3752163",
            "longitude": "127.3244304"
        },
        {
            "name": "대전유성NC",
            "address": "대전광역시 유성구 계룡로 119 (봉명동)",
            "latitude": "36.3535775",
            "longitude": "127.343794"
        },
        {
            "name": "대전구암DT",
            "address": "대전광역시 유성구 월드컵대로289번길 6 (구암동)",
            "latitude": "36.3487072",
            "longitude": "127.3326118"
        },
        {
            "name": "대전상대동",
            "address": "대전광역시 유성구 상대복용로29번길 13 (상대동)",
            "latitude": "36.3370813570682",
            "longitude": "127.332790642361"
        },
        {
            "name": "신세계대전B1",
            "address": "대전광역시 유성구 엑스포로 1 (도룡동), 대전신세계 백화점 B1층",
            "latitude": "36.375188049920126",
            "longitude": "127.38137904408467"
        },
        {
            "name": "대전엑스포스카이",
            "address": "대전광역시 유성구 엑스포로 1 (도룡동) 신세계엑스포점 38층",
            "latitude": "36.37489372413316",
            "longitude": "127.38323862987684"
        },
        {
            "name": "대전송강",
            "address": "대전광역시 유성구 봉산로 1 (송강동)",
            "latitude": "36.434193529548",
            "longitude": "127.38818470723"
        },
        {
            "name": "대전대사DT",
            "address": "대전광역시 중구 계룡로 949 (대사동)",
            "latitude": "36.318823",
            "longitude": "127.417463"
        },
        {
            "name": "대전태평",
            "address": "대전광역시 중구 태평로 71 (태평동)",
            "latitude": "36.3232773471066",
            "longitude": "127.393349813091"
        },
        {
            "name": "대전유천DT",
            "address": "대전광역시 중구 계백로 1604 (유천동)",
            "latitude": "36.31833643666211",
            "longitude": "127.39825379624604"
        },
        {
            "name": "대전중앙로R",
            "address": "대전광역시 중구 대종로 486 (은행동)",
            "latitude": "36.327962",
            "longitude": "127.426603"
        },
        {
            "name": "은행동",
            "address": "대전광역시 중구 중앙로 164 (은행동)",
            "latitude": "36.32907873",
            "longitude": "127.4276569"
        },
        {
            "name": "대전목동DT",
            "address": "대전광역시 중구 동서대로 1387 (목동)",
            "latitude": "36.3328668212906",
            "longitude": "127.410960847549"
        },
        {
            "name": "서대전네거리",
            "address": "대전광역시 중구 계룡로 878 (오류동), 1층",
            "latitude": "36.3230695601753",
            "longitude": "127.411202959063"
        }
    ]
}