{
    "location": "서울",
    "count": 644,
    "date": "2025-07-09",
    "item": [
        {
            "name": "역삼아레나빌딩",
            "address": "서울특별시 강남구 언주로 425 (역삼동)",
            "latitude": "37.501087",
            "longitude": "127.043069"
        },
        {
            "name": "논현역사거리",
            "address": "서울특별시 강남구 강남대로 538 (논현동)",
            "latitude": "37.510178",
            "longitude": "127.022223"
        },
        {
            "name": "신사역성일빌딩",
            "address": "서울특별시 강남구 강남대로 584 (논현동)",
            "latitude": "37.5139309",
            "longitude": "127.0206057"
        },
        {
            "name": "국기원사거리",
            "address": "서울특별시 강남구 테헤란로 125 (역삼동)",
            "latitude": "37.499517",
            "longitude": "127.031495"
        },
        {
            "name": "대치재경빌딩",
            "address": "서울특별시 강남구 남부순환로 2947 (대치동)",
            "latitude": "37.494668",
            "longitude": "127.062583"
        },
        {
            "name": "봉은사역",
            "address": "서울특별시 강남구 봉은사로 619 (삼성동)",
            "latitude": "37.515",
            "longitude": "127.063196"
        },
        {
            "name": "압구정윤성빌딩",
            "address": "서울특별시 강남구 논현로 834 (신사동)",
            "latitude": "37.5227934",
            "longitude": "127.0286009"
        },
        {
            "name": "코엑스별마당",
            "address": "서울특별시 강남구 영동대로 513 (삼성동)",
            "latitude": "37.510150",
            "longitude": "127.060275"
        },
        {
            "name": "삼성역섬유센터R",
            "address": "서울특별시 강남구 테헤란로 518 (대치동)",
            "latitude": "37.507750",
            "longitude": "127.060651"
        },
        {
            "name": "압구정R",
            "address": "서울특별시 강남구 언주로 861 (신사동)",
            "latitude": "37.5273669",
            "longitude": "127.033061"
        },
        {
            "name": "수서역R",
            "address": "서울특별시 강남구 광평로 281 (수서동)",
            "latitude": "37.48802242128887",
            "longitude": "127.10297991136235"
        },
        {
            "name": "양재강남빌딩R",
            "address": "서울특별시 강남구 남부순환로 2621 (도곡동)",
            "latitude": "37.485192",
            "longitude": "127.036685"
        },
        {
            "name": "선릉동신빌딩R",
            "address": "서울특별시 강남구 테헤란로 409 (삼성동)",
            "latitude": "37.505321",
            "longitude": "127.050409"
        },
        {
            "name": "봉은사로선정릉",
            "address": "서울특별시 강남구 봉은사로 446 (삼성동)",
            "latitude": "37.51131683405367",
            "longitude": "127.04846338902248"
        },
        {
            "name": "강남오거리",
            "address": "서울특별시 강남구 봉은사로2길 39 (역삼동)",
            "latitude": "37.502117",
            "longitude": "127.026672"
        },
        {
            "name": "스타필드코엑스몰R",
            "address": "서울특별시 강남구 영동대로 513 (삼성동) 코엑스 A106호",
            "latitude": "37.50999",
            "longitude": "127.061455"
        },
        {
            "name": "강남구청정문",
            "address": "서울특별시 강남구 학동로 419 (청담동)",
            "latitude": "37.518181",
            "longitude": "127.045995"
        },
        {
            "name": "도곡공원",
            "address": "서울특별시 강남구 도곡로 205 (역삼동)",
            "latitude": "37.492805",
            "longitude": "127.041309"
        },
        {
            "name": "강남R",
            "address": "서울특별시 강남구 강남대로 390 (역삼동)",
            "latitude": "37.497711",
            "longitude": "127.028439"
        },
        {
            "name": "대치은마사거리",
            "address": "서울특별시 강남구 도곡로 457 (대치동)",
            "latitude": "37.498973",
            "longitude": "127.060172"
        },
        {
            "name": "청담영동대로",
            "address": "서울특별시 강남구 영동대로 720 (청담동)",
            "latitude": "37.522156",
            "longitude": "127.056449"
        },
        {
            "name": "압구정",
            "address": "서울특별시 강남구 압구정로30길 17 (신사동)",
            "latitude": "37.526283",
            "longitude": "127.02956"
        },
        {
            "name": "신사가로수",
            "address": "서울특별시 강남구 가로수길 59",
            "latitude": "37.521933",
            "longitude": "127.022521"
        },
        {
            "name": "청담스타R",
            "address": "서울특별시 강남구 도산대로57길 24 (청담동)",
            "latitude": "37.525216",
            "longitude": "127.041827"
        },
        {
            "name": "강남우성",
            "address": "서울특별시 강남구 강남대로 328 (역삼동)",
            "latitude": "37.492396",
            "longitude": "127.03091"
        },
        {
            "name": "학동사거리",
            "address": "서울특별시 강남구 도산대로 328 (논현동)",
            "latitude": "37.52236449999999",
            "longitude": "127.03795430000002"
        },
        {
            "name": "대치사거리",
            "address": "서울특별시 강남구 삼성로 402 (대치동)",
            "latitude": "37.503331",
            "longitude": "127.058817"
        },
        {
            "name": "포스코사거리",
            "address": "서울특별시 강남구 테헤란로 505 (삼성동) 화진빌딩",
            "latitude": "37.5075307",
            "longitude": "127.05742710000004"
        },
        {
            "name": "을지병원사거리",
            "address": "서울특별시 강남구 논현로 752 (논현동,구산빌딩)",
            "latitude": "37.5191632",
            "longitude": "127.0286446"
        },
        {
            "name": "신사역",
            "address": "서울특별시 강남구 도산대로 108 (논현동) 렉스타워",
            "latitude": "37.5162021",
            "longitude": "127.0207428"
        },
        {
            "name": "도곡역",
            "address": "서울특별시 강남구 남부순환로 2909 (대치동)",
            "latitude": "37.492167",
            "longitude": "127.057398"
        },
        {
            "name": "서울세관사거리",
            "address": "서울특별시 강남구 언주로 650 (논현동) 한국건설기술인협회",
            "latitude": "37.514887",
            "longitude": "127.035653"
        },
        {
            "name": "청담사거리",
            "address": "서울특별시 강남구 도산대로 458 (청담동) 리츠타워",
            "latitude": "37.5236351",
            "longitude": "127.04686509999999"
        },
        {
            "name": "한티역",
            "address": "서울특별시 강남구 도곡로 408, 디마크빌딩 101호 (대치동)",
            "latitude": "37.496801",
            "longitude": "127.055055"
        },
        {
            "name": "역삼초교사거리",
            "address": "서울특별시 강남구 역삼로 123 (역삼동)",
            "latitude": "37.49416922110828",
            "longitude": "127.03317791475052"
        },
        {
            "name": "코엑스몰",
            "address": "서울특별시 강남구 영동대로 513 (삼성동) O103호",
            "latitude": "37.513715",
            "longitude": "127.059245"
        },
        {
            "name": "가로수길",
            "address": "서울특별시 강남구 논현로175길 94, 1~2층 (신사동)",
            "latitude": "37.5231593",
            "longitude": "127.02162499999997"
        },
        {
            "name": "역삼대로",
            "address": "서울특별시 강남구 테헤란로 211, 한국고등교육재단빌딩 1층 (역삼동)",
            "latitude": "37.501623",
            "longitude": "127.039375"
        },
        {
            "name": "역삼포스코",
            "address": "서울특별시 강남구 테헤란로 134, P&S TOWER (역삼동)",
            "latitude": "37.499721",
            "longitude": "127.033582"
        },
        {
            "name": "강남대로",
            "address": "서울특별시 강남구 강남대로 456, 한석타워 2층 1-2호 (역삼동)",
            "latitude": "37.50314",
            "longitude": "127.025546"
        },
        {
            "name": "청담",
            "address": "서울특별시 강남구 도산대로 532, 인희빌딩 1층 (청담동)",
            "latitude": "37.5243631",
            "longitude": "127.05155990000003"
        },
        {
            "name": "삼성교",
            "address": "서울특별시 강남구 영동대로86길 12, 동남유화빌딩 1층",
            "latitude": "37.507794",
            "longitude": "127.06517"
        },
        {
            "name": "학동역",
            "address": "서울특별시 강남구 논현로 704 (논현동)",
            "latitude": "37.51464884",
            "longitude": "127.0307302"
        },
        {
            "name": "대치",
            "address": "서울특별시 강남구 도곡로 511 (대치동)",
            "latitude": "37.49966175",
            "longitude": "127.0622171"
        },
        {
            "name": "신세계푸드마켓도곡",
            "address": "서울특별시 강남구 언주로30길 57, 타워팰리스Ⅱ F 지하1층 (도곡동)",
            "latitude": "37.490102006982106",
            "longitude": "127.05507020231974"
        },
        {
            "name": "삼성",
            "address": "서울특별시 강남구 테헤란로 443, 애플트리타워 1층 (삼성동)",
            "latitude": "37.50689645929321",
            "longitude": "127.05571872453659"
        },
        {
            "name": "선릉세화빌딩",
            "address": "서울특별시 강남구 테헤란로64길 18 (대치동) 1층",
            "latitude": "37.50377562",
            "longitude": "127.051196"
        },
        {
            "name": "압구정역",
            "address": "서울특별시 강남구 압구정로 170, 관영빌딩 1층 지하1층 (신사동)",
            "latitude": "37.52674095",
            "longitude": "127.0281105"
        },
        {
            "name": "압구정로",
            "address": "서울특별시 강남구 압구정로42길 32 (신사동)",
            "latitude": "37.52680046",
            "longitude": "127.0347174"
        },
        {
            "name": "구역삼사거리",
            "address": "서울특별시 강남구 논현로 401 (역삼동)",
            "latitude": "37.495890648099504",
            "longitude": "127.03890917851653"
        },
        {
            "name": "큰길타워",
            "address": "서울특별시 강남구 테헤란로 223, 큰길타워빌딩 (역삼동)",
            "latitude": "37.50236693",
            "longitude": "127.0407"
        },
        {
            "name": "강남구청역",
            "address": "서울특별시 강남구 선릉로 669, 웰빙센터 1층 (논현동)",
            "latitude": "37.5165849",
            "longitude": "127.04124330000002"
        },
        {
            "name": "대치역",
            "address": "서울특별시 강남구 남부순환로 2936 (대치동) 107호",
            "latitude": "37.493554",
            "longitude": "127.061874"
        },
        {
            "name": "포이",
            "address": "서울특별시 강남구 논현로 88 (개포동)",
            "latitude": "37.47781106",
            "longitude": "127.0451411"
        },
        {
            "name": "아크플레이스",
            "address": "서울특별시 강남구 테헤란로 142 (역삼동)",
            "latitude": "37.49971982",
            "longitude": "127.0349084"
        },
        {
            "name": "학여울역",
            "address": "서울특별시 강남구 영동대로 215 (대치동)",
            "latitude": "37.49803646",
            "longitude": "127.0684943"
        },
        {
            "name": "선정릉역",
            "address": "서울특별시 강남구 봉은사로 407 (삼성동) 에프오빌딩",
            "latitude": "37.51075489999999",
            "longitude": "127.04455970000003"
        },
        {
            "name": "삼성현대힐",
            "address": "서울특별시 강남구 삼성로 605 (삼성동)",
            "latitude": "37.51350444312708",
            "longitude": "127.05273753314826"
        },
        {
            "name": "GS타워",
            "address": "서울특별시 강남구 논현로 508 (역삼동)",
            "latitude": "37.5018592",
            "longitude": "127.03727759999992"
        },
        {
            "name": "압구정미소",
            "address": "서울특별시 강남구 논현로 841 (신사동)",
            "latitude": "37.523912710310014",
            "longitude": "127.02807214378778"
        },
        {
            "name": "선릉역",
            "address": "서울특별시 강남구 테헤란로 334, LG화재 빌딩 (역삼동)",
            "latitude": "37.50393894",
            "longitude": "127.0485135"
        },
        {
            "name": "코엑스사거리",
            "address": "서울특별시 강남구 영동대로 616 (삼성동)",
            "latitude": "37.515351",
            "longitude": "127.060109"
        },
        {
            "name": "역삼럭키",
            "address": "서울특별시 강남구 도곡로 183 (역삼동)",
            "latitude": "37.492209",
            "longitude": "127.039389"
        },
        {
            "name": "신압구정",
            "address": "서울특별시 강남구 언주로174길 29 (신사동)",
            "latitude": "37.528115",
            "longitude": "127.036441"
        },
        {
            "name": "아크로힐스논현",
            "address": "서울특별시 강남구 봉은사로 304, 금강빌딩 1-2층 (역삼동)",
            "latitude": "37.509013311862645",
            "longitude": "127.0403523996554"
        },
        {
            "name": "강남비젼타워",
            "address": "서울특별시 강남구 테헤란로2길 27, 1층 101호 (역삼동)",
            "latitude": "37.4964557",
            "longitude": "127.02968850000002"
        },
        {
            "name": "압구정로데오역",
            "address": "서울특별시 강남구 선릉로 836, 삼원빌딩 1,2층 (청담동)",
            "latitude": "37.526549",
            "longitude": "127.040437"
        },
        {
            "name": "르네상스사거리",
            "address": "서울특별시 강남구 테헤란로 306 (역삼동)",
            "latitude": "37.502721",
            "longitude": "127.044308"
        },
        {
            "name": "포스코",
            "address": "서울특별시 강남구 삼성로86길 7, 1층 (대치동)",
            "latitude": "37.50576457783876",
            "longitude": "127.05804488086114"
        },
        {
            "name": "선릉로",
            "address": "서울특별시 강남구 선릉로93길 22, 대흥빌딩 1층 (역삼동)",
            "latitude": "37.50498118534617",
            "longitude": "127.0468080752464"
        },
        {
            "name": "논현힐탑",
            "address": "서울특별시 강남구 논현로 648 (논현동)",
            "latitude": "37.511685",
            "longitude": "127.032187"
        },
        {
            "name": "도산가로수길",
            "address": "서울특별시 강남구 도산대로 134, 2층 (논현동)",
            "latitude": "37.51736229999999",
            "longitude": "127.02329570000006"
        },
        {
            "name": "매봉역",
            "address": "서울특별시 강남구 남부순환로 2736 (도곡동)",
            "latitude": "37.4859095",
            "longitude": "127.0452879"
        },
        {
            "name": "대치한티",
            "address": "서울특별시 강남구 선릉로 324 (대치동)",
            "latitude": "37.4984818",
            "longitude": "127.052066"
        },
        {
            "name": "개포동",
            "address": "서울특별시 강남구 선릉로 34 (개포동)",
            "latitude": "37.4828551359882",
            "longitude": "127.0607152444621"
        },
        {
            "name": "수서역사거리",
            "address": "서울특별시 강남구 광평로 280 (수서동)",
            "latitude": "37.487400776036274",
            "longitude": "127.10292252273775"
        },
        {
            "name": "코엑스아셈타워",
            "address": "서울특별시 강남구 영동대로 517 (삼성동)",
            "latitude": "37.513019",
            "longitude": "127.059838"
        },
        {
            "name": "강남차여성병원",
            "address": "서울특별시 강남구 봉은사로 156 (역삼동)",
            "latitude": "37.5064031867752",
            "longitude": "127.031811320915"
        },
        {
            "name": "센터필드R",
            "address": "서울특별시 강남구 테헤란로 231 (역삼동)",
            "latitude": "37.50369465391196",
            "longitude": "127.04172081609172"
        },
        {
            "name": "도산사거리",
            "address": "서울특별시 강남구 언주로 727 (논현동)",
            "latitude": "37.51966",
            "longitude": "127.0341"
        },
        {
            "name": "강남세곡",
            "address": "서울특별시 강남구 헌릉로569길 18 (세곡동)",
            "latitude": "37.467274319644",
            "longitude": "127.099929726"
        },
        {
            "name": "대치삼성",
            "address": "서울특별시 강남구 영동대로 237 (대치동)",
            "latitude": "37.500313",
            "longitude": "127.066961"
        },
        {
            "name": "언주역",
            "address": "서울특별시 강남구 봉은사로 222 (역삼동)",
            "latitude": "37.507975",
            "longitude": "127.036478"
        },
        {
            "name": "강남역신분당역사",
            "address": "서울특별시 강남구 강남대로 396 (역삼동)",
            "latitude": "37.4970572543978",
            "longitude": "127.028180714381"
        },
        {
            "name": "삼성역",
            "address": "서울특별시 강남구 테헤란로 620 (대치동)",
            "latitude": "37.509206962541256",
            "longitude": "127.06560851480327"
        },
        {
            "name": "테헤란로아남타워",
            "address": "서울특별시 강남구 테헤란로 311 (역삼동)",
            "latitude": "37.50383",
            "longitude": "127.04487"
        },
        {
            "name": "강남논현",
            "address": "서울특별시 강남구 강남대로 512 (논현동)",
            "latitude": "37.5078978596254",
            "longitude": "127.023338614644"
        },
        {
            "name": "삼성동",
            "address": "서울특별시 강남구 영동대로96길 12 (삼성동)",
            "latitude": "37.510843366121534",
            "longitude": "127.06363342044263"
        },
        {
            "name": "리저브도산",
            "address": "서울특별시 강남구 선릉로155길 23 (신사동)",
            "latitude": "37.525547584913184",
            "longitude": "127.03775087135216"
        },
        {
            "name": "압구정역사3번출구",
            "address": "서울특별시 강남구 논현로 854 (신사동)",
            "latitude": "37.52575281715033",
            "longitude": "127.02886190444627"
        },
        {
            "name": "청담역",
            "address": "서울특별시 강남구 삼성로 709 (청담동)",
            "latitude": "37.5194407323478",
            "longitude": "127.049552661542"
        },
        {
            "name": "압구정현대아파트",
            "address": "서울특별시 강남구 논현로175길 38 (신사동)",
            "latitude": "37.52521971236768",
            "longitude": "127.0256601858147"
        },
        {
            "name": "강남청담빌딩",
            "address": "서울특별시 강남구 선릉로 704 (청담동)",
            "latitude": "37.517887",
            "longitude": "127.041375"
        },
        {
            "name": "역삼이마트",
            "address": "서울특별시 강남구 역삼로 310 (역삼동)",
            "latitude": "37.499367",
            "longitude": "127.048425"
        },
        {
            "name": "케이스퀘어강남",
            "address": "서울특별시 강남구 강남대로94길 10 (역삼동)",
            "latitude": "37.4991914625768",
            "longitude": "127.028204360257"
        },
        {
            "name": "강남세곡DT",
            "address": "서울특별시 강남구 헌릉로 727 (세곡동)",
            "latitude": "37.466993809277",
            "longitude": "127.118330806807"
        },
        {
            "name": "미아뉴타운",
            "address": "서울특별시 강북구 삼양로 161 (미아동)",
            "latitude": "37.618319",
            "longitude": "127.021072"
        },
        {
            "name": "강북구청사거리",
            "address": "서울특별시 강북구 도봉로 365 (수유동)",
            "latitude": "37.639987861152015",
            "longitude": "127.0274331199793"
        },
        {
            "name": "미아사거리역",
            "address": "서울특별시 강북구 도봉로 32 (미아동)",
            "latitude": "37.611831247629375",
            "longitude": "127.03058552434908"
        },
        {
            "name": "수유역",
            "address": "서울특별시 강북구 도봉로 342 (번동)",
            "latitude": "37.6380167",
            "longitude": "127.02613500000007"
        },
        {
            "name": "미아역",
            "address": "서울특별시 강북구 도봉로 196 (미아동)",
            "latitude": "37.626148",
            "longitude": "127.026578"
        },
        {
            "name": "수유역5번출구",
            "address": "서울특별시 강북구 도봉로 315 (수유동, 에피소드 수유 838)",
            "latitude": "37.636722675028174",
            "longitude": "127.02332208832509"
        },
        {
            "name": "파라스파라서울",
            "address": "서울특별시 강북구 삼양로 689 (우이동) 파라스파라서울 지하1층",
            "latitude": "37.66419549576315",
            "longitude": "127.01040728594249"
        },
        {
            "name": "발산역사거리",
            "address": "서울특별시 강서구 공항대로 248 (마곡동)",
            "latitude": "37.558509",
            "longitude": "126.835096"
        },
        {
            "name": "마곡역",
            "address": "서울특별시 강서구 공항대로 168 (마곡동)",
            "latitude": "37.559611",
            "longitude": "126.826298"
        },
        {
            "name": "우장산역",
            "address": "서울특별시 강서구 강서로 267 (내발산동)",
            "latitude": "37.549510038803994",
            "longitude": "126.83606164803061"
        },
        {
            "name": "마곡사이언스타워R",
            "address": "서울특별시 강서구 마곡동로 62 (마곡동)",
            "latitude": "37.5605261",
            "longitude": "126.833887"
        },
        {
            "name": "방화DT",
            "address": "서울특별시 강서구 방화대로 375 (방화동)",
            "latitude": "37.574456834773024",
            "longitude": "126.81648812379821"
        },
        {
            "name": "마곡나루역",
            "address": "서울특별시 강서구 마곡중앙로 161-17 (마곡동)",
            "latitude": "37.56813",
            "longitude": "126.82614"
        },
        {
            "name": "마곡GMG",
            "address": "서울특별시 강서구 마곡중앙6로 16 (마곡동) 117,118,119,120호",
            "latitude": "37.560487",
            "longitude": "126.829667"
        },
        {
            "name": "가양역",
            "address": "서울특별시 강서구 양천로 476 (등촌동)",
            "latitude": "37.561640",
            "longitude": "126.853327"
        },
        {
            "name": "화곡DT",
            "address": "서울특별시 강서구 등촌로 57 (화곡동)",
            "latitude": "37.5350107501795",
            "longitude": "126.86318804786"
        },
        {
            "name": "양천향교역",
            "address": "서울특별시 강서구 강서로 463 (마곡동)",
            "latitude": "37.566964",
            "longitude": "126.840731"
        },
        {
            "name": "화곡동",
            "address": "서울특별시 강서구 화곡로 142(화곡동)",
            "latitude": "37.540619019726435",
            "longitude": "126.83738800870792"
        },
        {
            "name": "등촌",
            "address": "서울특별시 강서구 공항대로 329 (등촌동)",
            "latitude": "37.5582043",
            "longitude": "126.84433919999992"
        },
        {
            "name": "염창역",
            "address": "서울특별시 강서구 공항대로 627 (염창동)",
            "latitude": "37.547359",
            "longitude": "126.874436"
        },
        {
            "name": "발산역",
            "address": "서울특별시 강서구 강서로 388 (등촌동) 그랜드마트",
            "latitude": "37.56033524296544",
            "longitude": "126.83913908184506"
        },
        {
            "name": "까치산역",
            "address": "서울특별시 강서구 강서로13길 3 (화곡동)",
            "latitude": "37.5323235082489",
            "longitude": "126.84612332664443"
        },
        {
            "name": "염창대로",
            "address": "서울특별시 강서구 양천로 744 (염창동), 101호",
            "latitude": "37.5485479128966",
            "longitude": "126.878259347206"
        },
        {
            "name": "발산역5번출구",
            "address": "서울특별시 강서구 강서로52길 43 (내발산동, DH647), 1층 일부",
            "latitude": "37.5579224739977",
            "longitude": "126.84054030692"
        },
        {
            "name": "화곡역8번출구",
            "address": "서울특별시 강서구 강서로 179 (화곡동), 1층 일부",
            "latitude": "37.54227920628",
            "longitude": "126.839299954553"
        },
        {
            "name": "강서우장산",
            "address": "서울특별시 강서구 강서로 231 (화곡동, 우장산역 해링턴 타워), 116/117/118/119/120호",
            "latitude": "37.54661114997271",
            "longitude": "126.83611326062484"
        },
        {
            "name": "등촌대로",
            "address": "서울특별시 강서구 공항대로 543 (염창동, 센터스퀘어)",
            "latitude": "37.5504921817371",
            "longitude": "126.8665095756118"
        },
        {
            "name": "마곡보타닉게이트",
            "address": "서울특별시 강서구 마곡동로 166 (마곡동) 106호,107호,108호",
            "latitude": "37.56910032273387",
            "longitude": "126.83633283391289"
        },
        {
            "name": "가양역사거리",
            "address": "서울특별시 강서구 화곡로 416 (등촌동) 가양더스카이벨리5차 지식산업센터 101, 102, 114,~117호",
            "latitude": "37.56007",
            "longitude": "126.855372"
        },
        {
            "name": "원그로브",
            "address": "서울특별시 강서구 공항대로 165 (마곡동)지하1층, WB115호",
            "latitude": "37.561073664628026",
            "longitude": "126.82462476536686"
        },
        {
            "name": "내발산",
            "address": "서울특별시 강서구 강서로 323 (내발산동), 101/102호",
            "latitude": "37.55467",
            "longitude": "126.83672"
        },
        {
            "name": "마곡웰튼",
            "address": "서울특별시 강서구 마곡중앙5로 22 (마곡동), 104/105/106호",
            "latitude": "37.5671428910102",
            "longitude": "126.825315150636"
        },
        {
            "name": "김포공항DT",
            "address": "서울특별시 강서구 개화동로 517 (방화동)",
            "latitude": "37.56627942080141",
            "longitude": "126.8060664470359"
        },
        {
            "name": "강서NC",
            "address": "서울특별시 강서구 강서로56길 17 (등촌동)",
            "latitude": "37.55978002533287",
            "longitude": "126.83998346498424"
        },
        {
            "name": "김포공항국제선",
            "address": "서울특별시 강서구 하늘길 38 (방화동)",
            "latitude": "37.56604490355177",
            "longitude": "126.80050380500948"
        },
        {
            "name": "마곡케이스퀘어",
            "address": "서울특별시 강서구 마곡중앙로 105-7 (마곡동), 1층 일부",
            "latitude": "37.562374500980084",
            "longitude": "126.82693066365749"
        },
        {
            "name": "마곡나루공원",
            "address": "서울특별시 강서구 마곡중앙5로 47 (마곡동)",
            "latitude": "37.567007",
            "longitude": "126.822246"
        },
        {
            "name": "송정역",
            "address": "서울특별시 강서구 공항대로 38 (공항동), 1층 일부",
            "latitude": "37.56105570786667",
            "longitude": "126.81150987871888"
        },
        {
            "name": "강서구청사거리",
            "address": "서울특별시 강서구 화곡로 350 (화곡동)",
            "latitude": "37.5549266",
            "longitude": "126.8523133"
        },
        {
            "name": "낙성대역",
            "address": "서울특별시 관악구 남부순환로 1908 (봉천동)",
            "latitude": "37.477760129939064",
            "longitude": "126.96114261955485"
        },
        {
            "name": "관악서울대입구R",
            "address": "서울특별시 관악구 관악로 158 (봉천동)",
            "latitude": "37.47932480888598",
            "longitude": "126.95270199623682"
        },
        {
            "name": "신림DT",
            "address": "서울특별시 관악구 남부순환로 1419 (신림동)",
            "latitude": "37.480935",
            "longitude": "126.908407"
        },
        {
            "name": "서울대역",
            "address": "서울특별시 관악구 남부순환로 1817 (봉천동)",
            "latitude": "37.48166265091104",
            "longitude": "126.9520164977362"
        },
        {
            "name": "낙성대DT",
            "address": "서울특별시 관악구 남부순환로 1948 (봉천동)",
            "latitude": "37.476243169019526",
            "longitude": "126.96511724631266"
        },
        {
            "name": "사당",
            "address": "서울특별시 관악구 남부순환로 22-3232",
            "latitude": "37.4760559",
            "longitude": "126.980928"
        },
        {
            "name": "보라매대교",
            "address": "서울특별시 관악구 보라매로3길 23 (봉천동) 1층",
            "latitude": "37.491449",
            "longitude": "126.925432"
        },
        {
            "name": "신림",
            "address": "서울특별시 관악구 신림로 355-1 (신림동)",
            "latitude": "37.48609493",
            "longitude": "126.9291602"
        },
        {
            "name": "신림타임스트림",
            "address": "서울특별시 관악구 신림로 330 타임스트림 1층",
            "latitude": "37.48407101920536",
            "longitude": "126.93025831103377"
        },
        {
            "name": "서울대입구역",
            "address": "서울특별시 관악구 남부순환로 1812 (봉천동)",
            "latitude": "37.481207389699065",
            "longitude": "126.95140060487287"
        },
        {
            "name": "서울대입구역8번출구",
            "address": "서울특별시 관악구 남부순환로 1831 (봉천동)",
            "latitude": "37.4812061",
            "longitude": "126.9536942"
        },
        {
            "name": "봉천역",
            "address": "서울특별시 관악구 남부순환로 1730 (봉천동)",
            "latitude": "37.4820375340064",
            "longitude": "126.942287792538"
        },
        {
            "name": "봉천현대시장",
            "address": "서울특별시 관악구 은천로 118 (봉천동), 1층 101~104호",
            "latitude": "37.48665266827689",
            "longitude": "126.94829614696478"
        },
        {
            "name": "건국대",
            "address": "서울특별시 광진구 능동로 117 (화양동)",
            "latitude": "37.5415592",
            "longitude": "127.0711244"
        },
        {
            "name": "어린이대공원역",
            "address": "서울특별시 광진구 능동로 243 (군자동)",
            "latitude": "37.551946",
            "longitude": "127.076404"
        },
        {
            "name": "아차산역",
            "address": "서울특별시 광진구 천호대로 676 (구의동)",
            "latitude": "37.55062116262961",
            "longitude": "127.09003207951664"
        },
        {
            "name": "올림픽대교북단",
            "address": "서울특별시 광진구 광나루로 608 (구의동)",
            "latitude": "37.541129",
            "longitude": "127.09524"
        },
        {
            "name": "구의DT",
            "address": "서울특별시 광진구 광나루로 519 (구의동)",
            "latitude": "37.54529838924125",
            "longitude": "127.0871967283424"
        },
        {
            "name": "자양사거리",
            "address": "서울특별시 광진구 아차산로 355",
            "latitude": "37.5371158",
            "longitude": "127.0825821"
        },
        {
            "name": "군자역",
            "address": "서울특별시 광진구 천호대로 548 (군자동) 중앙빌딩",
            "latitude": "37.557026068940765",
            "longitude": "127.07910984029934"
        },
        {
            "name": "광나루",
            "address": "서울특별시 광진구 아차산로 607, 1,2층 (광장동)",
            "latitude": "37.5473711178786",
            "longitude": "127.106048727555"
        },
        {
            "name": "건대스타시티",
            "address": "서울특별시 광진구 아차산로 262 (자양동)",
            "latitude": "37.538544",
            "longitude": "127.073009"
        },
        {
            "name": "건대입구",
            "address": "서울특별시 광진구 능동로 107 (화양동)",
            "latitude": "37.5406604",
            "longitude": "127.07072249999999"
        },
        {
            "name": "구의역",
            "address": "서울특별시 광진구 아차산로 373 (구의동)",
            "latitude": "37.53698",
            "longitude": "127.084015"
        },
        {
            "name": "광장",
            "address": "서울특별시 광진구 아차산로 537-17 (광장동)",
            "latitude": "37.54261257747251",
            "longitude": "127.09964053100874"
        },
        {
            "name": "건국클래식",
            "address": "서울특별시 광진구 능동로 90 (자양동) 더 클래식500",
            "latitude": "37.538466",
            "longitude": "127.071271"
        },
        {
            "name": "구의역이스트폴",
            "address": "서울특별시 광진구 아차산로 402 (자양동), 1층",
            "latitude": "37.53657397133724",
            "longitude": "127.08785695168247"
        },
        {
            "name": "건대후문",
            "address": "서울특별시 광진구 능동로 172 (화양동)",
            "latitude": "37.54603056145237",
            "longitude": "127.07381934747977"
        },
        {
            "name": "중곡역",
            "address": "서울특별시 광진구 능동로 400 (중곡동) 1층 108,109,110,111,112,118 6개호실",
            "latitude": "37.565057005115804",
            "longitude": "127.08445231025851"
        },
        {
            "name": "자양이마트",
            "address": "서울특별시 광진구 아차산로 272 (자양동) 지하1층",
            "latitude": "37.537817",
            "longitude": "127.072597"
        },
        {
            "name": "자양역",
            "address": "서울특별시 광진구 능동로 18 (자양동, 이튼타워리버3차)",
            "latitude": "37.532684640479",
            "longitude": "127.067878503557"
        },
        {
            "name": "화양삼거리",
            "address": "서울특별시 광진구 광나루로 374 (화양동)",
            "latitude": "37.54774853077512",
            "longitude": "127.07126924540047"
        },
        {
            "name": "군자사거리",
            "address": "서울특별시 광진구 천호대로 549 (중곡동) 1층",
            "latitude": "37.55769507399991",
            "longitude": "127.079087912222"
        },
        {
            "name": "금천구청역",
            "address": "서울특별시 금천구 시흥대로73길 67 (시흥동), 엠메디컬타워 1층",
            "latitude": "37.45588672536701",
            "longitude": "126.89568245942294"
        },
        {
            "name": "가산에스케이",
            "address": "서울특별시 금천구 가산디지털1로 171 (가산동), SK V1센터 1층",
            "latitude": "37.48082408602027",
            "longitude": "126.88100079322535"
        },
        {
            "name": "독산사거리",
            "address": "서울특별시 금천구 시흥대로 426 (독산동)",
            "latitude": "37.47158263368701",
            "longitude": "126.89860551804541"
        },
        {
            "name": "금천시흥",
            "address": "서울특별시 금천구 시흥대로 164 (시흥동)",
            "latitude": "37.44875938266414",
            "longitude": "126.90323875981919"
        },
        {
            "name": "가산디지털단지역",
            "address": "서울특별시 금천구 벚꽃로 298 (가산동), 대륭포스트타워 6차 1층",
            "latitude": "37.48135375445197",
            "longitude": "126.88358906045958"
        },
        {
            "name": "금천독산",
            "address": "서울특별시 금천구 두산로 70 (독산동)",
            "latitude": "37.46957081",
            "longitude": "126.89565779"
        },
        {
            "name": "가산디지털",
            "address": "서울특별시 금천구 가산디지털1로 168 (가산동), 우림라이온스밸리 B동 1층",
            "latitude": "37.479970085901",
            "longitude": "126.882507193785"
        },
        {
            "name": "마리오아울렛",
            "address": "서울특별시 금천구 벚꽃로 266 마리오아울렛3관",
            "latitude": "37.47860691180926",
            "longitude": "126.88484825777416"
        },
        {
            "name": "가산브이타워",
            "address": "서울특별시 금천구 가산디지털1로 128 (가산동), V-TOWER 1층",
            "latitude": "37.47700409645337",
            "longitude": "126.88355058577785"
        },
        {
            "name": "독산역",
            "address": "서울특별시 금천구 가산디지털1로 16 (가산동), 107-2, 1층",
            "latitude": "37.46770966619833",
            "longitude": "126.88767404102677"
        },
        {
            "name": "가산퍼블릭",
            "address": "서울특별시 금천구 디지털로 178 (가산동), B동 F Park 1층",
            "latitude": "37.47574363470601",
            "longitude": "126.88684803652211"
        },
        {
            "name": "가산현대아울렛",
            "address": "서울특별시 금천구 디지털로10길 9 (가산동), 1층 일부",
            "latitude": "37.477680443",
            "longitude": "126.888840553"
        },
        {
            "name": "가산케이에스",
            "address": "서울특별시 금천구 벚꽃로36길 30 (가산동), 가산KS타워 1층",
            "latitude": "37.48089352069766",
            "longitude": "126.88515566597013"
        },
        {
            "name": "가산어반워크",
            "address": "서울특별시 금천구 가산디지털2로 135 (가산동)",
            "latitude": "37.4800231711237",
            "longitude": "126.878250987906"
        },
        {
            "name": "월계역",
            "address": "서울특별시 노원구 초안산로2라길26 월계동(104,105,106호)",
            "latitude": "37.6295",
            "longitude": "127.0574"
        },
        {
            "name": "월계트레이더스",
            "address": "서울특별시 노원구 마들로3길 17 (월계동)",
            "latitude": "37.62758407402858",
            "longitude": "127.06177585602872"
        },
        {
            "name": "상계초교사거리",
            "address": "서울특별시 노원구 노원로 449 (상계동)",
            "latitude": "37.656776",
            "longitude": "127.066442"
        },
        {
            "name": "공릉DT",
            "address": "서울특별시 노원구 동일로 1015 (공릉동)",
            "latitude": "37.6206884",
            "longitude": "127.0743116"
        },
        {
            "name": "노원마들역",
            "address": "서울특별시 노원구 노원로 569 (상계동, 임광아파트)",
            "latitude": "37.6610890700127",
            "longitude": "127.05801543641189"
        },
        {
            "name": "공릉역",
            "address": "서울특별시 노원구 동일로 1081 (공릉동)",
            "latitude": "37.626337",
            "longitude": "127.072252"
        },
        {
            "name": "은행사거리",
            "address": "서울특별시 노원구 중계로 217, 중흥빌딩 103,203호 (중계동)",
            "latitude": "37.6505261052442",
            "longitude": "127.07599353308129"
        },
        {
            "name": "노원KT",
            "address": "서울특별시 노원구 노해로 502, (주)KT 노원사옥 (상계동)",
            "latitude": "37.654562",
            "longitude": "127.063617"
        },
        {
            "name": "광운대",
            "address": "서울특별시 노원구 석계로 104 (월계동)",
            "latitude": "37.62317424708698",
            "longitude": "127.06080652927419"
        },
        {
            "name": "중계역",
            "address": "서울특별시 노원구 동일로 1339, 대한빌딩 (상계동)",
            "latitude": "37.64817",
            "longitude": "127.062244"
        },
        {
            "name": "노원역",
            "address": "서울특별시 노원구 동일로 1413 (상계동) 1층",
            "latitude": "37.654751",
            "longitude": "127.060034"
        },
        {
            "name": "월계이마트",
            "address": "서울특별시 노원구 마들로3길 15 (월계동)",
            "latitude": "37.627149177269075",
            "longitude": "127.06210118175261"
        },
        {
            "name": "태릉입구역DT",
            "address": "서울특별시 노원구 화랑로 469 (공릉동)",
            "latitude": "37.61942",
            "longitude": "127.07932"
        },
        {
            "name": "노원상계",
            "address": "서울특별시 노원구 동일로215길 2 (상계동)",
            "latitude": "37.651535",
            "longitude": "127.061026"
        },
        {
            "name": "노원구청",
            "address": "서울특별시 노원구 노해로 447 (상계동)",
            "latitude": "37.6539896",
            "longitude": "127.057755"
        },
        {
            "name": "창동이마트",
            "address": "서울특별시 도봉구 노해로65길 4 (창동)",
            "latitude": "37.651658491435505",
            "longitude": "127.04686598939148"
        },
        {
            "name": "쌍문역",
            "address": "서울특별시 도봉구 도봉로 480 (창동)",
            "latitude": "37.648456",
            "longitude": "127.034783"
        },
        {
            "name": "도봉구청",
            "address": "서울특별시 도봉구 마들로 665 (도봉동)",
            "latitude": "37.6695034764443",
            "longitude": "127.04603799266"
        },
        {
            "name": "쌍문도봉로",
            "address": "서울특별시 도봉구 도봉로 444 (창동)",
            "latitude": "37.6453516",
            "longitude": "127.0331011"
        },
        {
            "name": "도봉로DT",
            "address": "서울특별시 도봉구 도봉로 635 (쌍문동)",
            "latitude": "37.6611805929041",
            "longitude": "127.041630065957"
        },
        {
            "name": "방학역",
            "address": "서울특별시 도봉구 도봉로 684 (방학동)101,102,113,114,115호",
            "latitude": "37.6653125",
            "longitude": "127.0433125"
        },
        {
            "name": "창동역",
            "address": "서울특별시 도봉구 마들로13길 61 (창동)",
            "latitude": "37.6545021055909",
            "longitude": "127.049672533607"
        },
        {
            "name": "노량진동",
            "address": "서울특별시 동작구 노량진로 190 (노량진동, 고려교육타워-어바니엘한강) 101호~105호",
            "latitude": "37.513068",
            "longitude": "126.946537"
        },
        {
            "name": "남성역",
            "address": "서울특별시 동작구 사당로 219 (사당동)",
            "latitude": "37.4841198",
            "longitude": "126.9725739"
        },
        {
            "name": "상도역",
            "address": "서울특별시 동작구 상도로37길 1 (상도1동)",
            "latitude": "37.5031936",
            "longitude": "126.9484581"
        },
        {
            "name": "보라매공원R",
            "address": "서울특별시 동작구 보라매로5길 35 (신대방동, 파크스퀘어,보라매현대APT)",
            "latitude": "37.49191014040362",
            "longitude": "126.92354836012281"
        },
        {
            "name": "이수자이",
            "address": "서울특별시 동작구 사당로 300 (사당동 이수자이)",
            "latitude": "37.484414",
            "longitude": "126.980047"
        },
        {
            "name": "노량진역",
            "address": "서울특별시 동작구 노량진로 134 (노량진동)",
            "latitude": "37.51339",
            "longitude": "126.940879"
        },
        {
            "name": "신대방삼거리역",
            "address": "서울특별시 동작구 상도로 102 (상도동)",
            "latitude": "37.50034872148687",
            "longitude": "126.93198758957686"
        },
        {
            "name": "중앙대",
            "address": "서울특별시 동작구 흑석로 75-1 (흑석동)",
            "latitude": "37.506933",
            "longitude": "126.958125"
        },
        {
            "name": "숭실대입구역",
            "address": "서울특별시 동작구 상도로 354 (상도동)",
            "latitude": "37.4968346",
            "longitude": "126.95271230000003"
        },
        {
            "name": "숭실대",
            "address": "서울특별시 동작구 사당로 4 (상도동)",
            "latitude": "37.49538073",
            "longitude": "126.9548891"
        },
        {
            "name": "사당역",
            "address": "서울특별시 동작구 동작대로 21, 양지빌딩 1-3층 (사당동)",
            "latitude": "37.47849216",
            "longitude": "126.9813456"
        },
        {
            "name": "상도대로",
            "address": "서울특별시 동작구 상도로 218 (상도동), 1층",
            "latitude": "37.5050479253333",
            "longitude": "126.942893815432"
        },
        {
            "name": "이수역13번출구",
            "address": "서울특별시 동작구 동작대로27길 5 (사당동), 1층",
            "latitude": "37.4873371169464",
            "longitude": "126.981493294163"
        },
        {
            "name": "서강대프라자",
            "address": "서울특별시 마포구 백범로 35 (신수동)",
            "latitude": "37.55102696988243",
            "longitude": "126.94313374835715"
        },
        {
            "name": "상암YTN",
            "address": "서울특별시 마포구 상암산로 76 (상암동)",
            "latitude": "37.579314265546294",
            "longitude": "126.89221044590168"
        },
        {
            "name": "마포용강동",
            "address": "서울특별시 마포구 토정로 295 (용강동)",
            "latitude": "37.541186",
            "longitude": "126.942209"
        },
        {
            "name": "홍대입구역사거리R",
            "address": "서울특별시 마포구 양화로 125 (서교동)",
            "latitude": "37.554636",
            "longitude": "126.92036"
        },
        {
            "name": "마포경찰서후문",
            "address": "서울특별시 마포구 마포대로 173-14 (아현동)",
            "latitude": "37.550800",
            "longitude": "126.953432"
        },
        {
            "name": "공덕",
            "address": "서울특별시 마포구 마포대로 130 (공덕동)",
            "latitude": "37.545913",
            "longitude": "126.952956"
        },
        {
            "name": "합정폴리스R",
            "address": "서울특별시 마포구 양화로 45 (서교동, 메세나폴리스)",
            "latitude": "37.5509",
            "longitude": "126.9134"
        },
        {
            "name": "홍대공항철도역",
            "address": "서울특별시 마포구 양화로 178 (동교동)",
            "latitude": "37.557491",
            "longitude": "126.925146"
        },
        {
            "name": "마포염리",
            "address": "서울특별시 마포구 독막로 311 (염리동)",
            "latitude": "37.543876",
            "longitude": "126.94768"
        },
        {
            "name": "서강광흥창역",
            "address": "서울특별시 마포구 서강로 69 (창전동)",
            "latitude": "37.549377",
            "longitude": "126.931661"
        },
        {
            "name": "합정",
            "address": "서울특별시 마포구 월드컵로1길 14 (합정동) 마포한강푸르지오 110, 111, 112-2",
            "latitude": "37.54997888236882",
            "longitude": "126.91254036891405"
        },
        {
            "name": "서강대흥역",
            "address": "서울특별시 마포구 백범로 89-5 (대흥동)",
            "latitude": "37.548178",
            "longitude": "126.941576"
        },
        {
            "name": "서교동사거리",
            "address": "서울특별시 마포구 양화로 105 (서교동)",
            "latitude": "37.553376",
            "longitude": "126.918564"
        },
        {
            "name": "상암사보이시티",
            "address": "서울특별시 마포구 월드컵북로54길 17 (상암동)",
            "latitude": "37.581462210224295",
            "longitude": "126.88878549621795"
        },
        {
            "name": "신촌오거리",
            "address": "서울특별시 마포구 신촌로16길 10 (노고산동)",
            "latitude": "37.555137",
            "longitude": "126.934694"
        },
        {
            "name": "상암디지털큐브",
            "address": "서울특별시 마포구 상암산로 34",
            "latitude": "37.57613521806125",
            "longitude": "126.88892643460335"
        },
        {
            "name": "상수역",
            "address": "서울특별시 마포구 독막로 88 (상수동)",
            "latitude": "37.5474817",
            "longitude": "126.92321579999998"
        },
        {
            "name": "공덕오거리",
            "address": "서울특별시 마포구 마포대로 86 (도화동) 창강빌딩",
            "latitude": "37.5424641",
            "longitude": "126.95057730000008"
        },
        {
            "name": "서강대",
            "address": "서울특별시 마포구 백범로 23 (신수동)",
            "latitude": "37.5524584",
            "longitude": "126.9378262"
        },
        {
            "name": "상암MBC",
            "address": "서울특별시 마포구 성암로 267 (상암동)",
            "latitude": "37.58094223885055",
            "longitude": "126.89158543354138"
        },
        {
            "name": "홍대역",
            "address": "서울특별시 마포구 양화로 165, 상진빌딩 1층 (동교동)",
            "latitude": "37.557175",
            "longitude": "126.923654"
        },
        {
            "name": "동교",
            "address": "서울특별시 마포구 월드컵북로 22, 영준빌딩 1층 (동교동)",
            "latitude": "37.556928",
            "longitude": "126.919819"
        },
        {
            "name": "애오개역",
            "address": "서울특별시 마포구 마포대로 201, 마포트라팰리스II (아현동)",
            "latitude": "37.5521107",
            "longitude": "126.9557094"
        },
        {
            "name": "상암DMC",
            "address": "서울특별시 마포구 월드컵북로 375, DMC이안오피스텔1단지 102호,202호 (상암동)",
            "latitude": "37.57770031657981",
            "longitude": "126.8909363638002"
        },
        {
            "name": "마포일진빌딩",
            "address": "서울특별시 마포구 마포대로 45, 일진빌딩 1층 (도화동)",
            "latitude": "37.54043451",
            "longitude": "126.9463168"
        },
        {
            "name": "마포아크로",
            "address": "서울특별시 마포구 마포대로 68 (도화동) 마포아크로타워",
            "latitude": "37.5413348427548",
            "longitude": "126.948866602054"
        },
        {
            "name": "홍대삼거리",
            "address": "서울특별시 마포구 와우산로 64 (상수동)",
            "latitude": "37.55024764",
            "longitude": "126.9232823"
        },
        {
            "name": "망원역",
            "address": "서울특별시 마포구 월드컵로 74 (서교동)",
            "latitude": "37.555829",
            "longitude": "126.910637"
        },
        {
            "name": "마포이마트",
            "address": "서울특별시 마포구 백범로 212 (신공덕동) 마포이마트",
            "latitude": "37.542421",
            "longitude": "126.953341"
        },
        {
            "name": "합정메세나몰",
            "address": "서울특별시 마포구 양화로 45 (서교동, 메세나폴리스)",
            "latitude": "37.55005846963587",
            "longitude": "126.91355876250871"
        },
        {
            "name": "아현역대로",
            "address": "서울특별시 마포구 신촌로 262 (아현동)",
            "latitude": "37.55716559459335",
            "longitude": "126.9549050409227"
        },
        {
            "name": "디지털미디어시티역",
            "address": "서울특별시 마포구 성암로 179 (상암동)",
            "latitude": "37.57614872684475",
            "longitude": "126.89894785452836"
        },
        {
            "name": "홍대역8번출구",
            "address": "서울특별시 마포구 양화로 166 (동교동)",
            "latitude": "37.556743503599",
            "longitude": "126.924166543608"
        },
        {
            "name": "합정푸르지오",
            "address": "서울특별시 마포구 월드컵로3길 14 (합정동, 마포 한강 2차 푸르지오)",
            "latitude": "37.55094290761422",
            "longitude": "126.9124826592047"
        },
        {
            "name": "홍대동교",
            "address": "서울특별시 마포구 양화로 192 (동교동)",
            "latitude": "37.5583280533329",
            "longitude": "126.926246501876"
        },
        {
            "name": "망원한강공원",
            "address": "서울특별시 마포구 마포나루길 435 (망원동)",
            "latitude": "37.55397484916793",
            "longitude": "126.89592784171348"
        },
        {
            "name": "마포구청역",
            "address": "서울특별시 마포구 월드컵로 200 (성산동) 1층 일부",
            "latitude": "37.5649569864623",
            "longitude": "126.902554646241"
        },
        {
            "name": "가재울뉴타운",
            "address": "서울특별시 서대문구 가재울미래로 2 (남가좌동, DMC파크뷰자이2단지별동상가1층)",
            "latitude": "37.57507214454173",
            "longitude": "126.91635993282007"
        },
        {
            "name": "남가좌사거리",
            "address": "서울특별시 서대문구 거북골로 84 (남가좌동, DMC에코자이104동)",
            "latitude": "37.577386",
            "longitude": "126.920815"
        },
        {
            "name": "신촌역",
            "address": "서울특별시 서대문구 신촌로 73 (창천동)",
            "latitude": "37.55625738",
            "longitude": "126.934653"
        },
        {
            "name": "아현역",
            "address": "서울특별시 서대문구 신촌로35길 10 (북아현동, e편한세상신촌 4단지)",
            "latitude": "37.558245014814666",
            "longitude": "126.95616914989028"
        },
        {
            "name": "홍제역",
            "address": "서울특별시 서대문구 통일로 451 (홍제동)",
            "latitude": "37.588658",
            "longitude": "126.943864"
        },
        {
            "name": "연세백양로",
            "address": "서울특별시 서대문구 연세로 50 (신촌동) 연세대학교",
            "latitude": "37.562874457",
            "longitude": "126.937440049"
        },
        {
            "name": "연희DT",
            "address": "서울특별시 서대문구 연희로 144 (연희동)",
            "latitude": "37.5702143",
            "longitude": "126.9339777"
        },
        {
            "name": "경기대",
            "address": "서울특별시 서대문구 충정로 53 (충정로2가)",
            "latitude": "37.56367995",
            "longitude": "126.9646045"
        },
        {
            "name": "신촌",
            "address": "서울특별시 서대문구 연세로 10-1 (창천동)",
            "latitude": "37.55650646625964",
            "longitude": "126.93707189576916"
        },
        {
            "name": "이대",
            "address": "서울특별시 서대문구 이화여대길 34 (대현동)",
            "latitude": "37.55848315",
            "longitude": "126.9459643"
        },
        {
            "name": "연세종합관",
            "address": "서울특별시 서대문구 연세로 50, 연세세브란스 종합관 (신촌동)",
            "latitude": "37.561468543",
            "longitude": "126.941119654"
        },
        {
            "name": "이대ECC",
            "address": "서울특별시 서대문구 이화여대길 52 (대현동) 이화여자대학교 B415호",
            "latitude": "37.561631",
            "longitude": "126.94735"
        },
        {
            "name": "연대",
            "address": "서울특별시 서대문구 연세로 35 (창천동)",
            "latitude": "37.558706",
            "longitude": "126.936727"
        },
        {
            "name": "충정로역",
            "address": "서울특별시 서대문구 충정로 23",
            "latitude": "37.56137",
            "longitude": "126.963219"
        },
        {
            "name": "연대동문",
            "address": "서울특별시 서대문구 성산로 565 (대신동)",
            "latitude": "37.56648507",
            "longitude": "126.9463253"
        },
        {
            "name": "신촌명물거리",
            "address": "서울특별시 서대문구 명물길 24, 1-5층 (창천동)",
            "latitude": "37.557768434",
            "longitude": "126.938154503"
        },
        {
            "name": "충정타워",
            "address": "서울특별시 서대문구 서소문로 21, 충정타워빌딩 1층 (충정로3가)",
            "latitude": "37.559869",
            "longitude": "126.96411"
        },
        {
            "name": "명지대",
            "address": "서울특별시 서대문구 거북골로 34 (남가좌동)",
            "latitude": "37.579040898408955",
            "longitude": "126.92278859674574"
        },
        {
            "name": "이대역",
            "address": "서울특별시 서대문구 신촌로 183 (대현동)",
            "latitude": "37.55702459539767",
            "longitude": "126.94630659955032"
        },
        {
            "name": "신촌로",
            "address": "서울특별시 서대문구 신촌로 109 (창천동)",
            "latitude": "37.55580883425132",
            "longitude": "126.93828627236182"
        },
        {
            "name": "북가좌DT",
            "address": "서울특별시 서대문구 응암로 85 (북가좌동)",
            "latitude": "37.580758",
            "longitude": "126.911478"
        },
        {
            "name": "연희동",
            "address": "서울특별시 서대문구 연희로 79 (연희동)",
            "latitude": "37.5654550624029",
            "longitude": "126.929552728948"
        },
        {
            "name": "현대신촌",
            "address": "서울특별시 서대문구 신촌로 83 (창천동)",
            "latitude": "37.55592458080376",
            "longitude": "126.93569449086847"
        },
        {
            "name": "방배로",
            "address": "서울특별시 서초구 방배로 52 (방배동)",
            "latitude": "37.4793434",
            "longitude": "126.9994968"
        },
        {
            "name": "강남교보타워R",
            "address": "서울특별시 서초구 강남대로 465 (서초동)",
            "latitude": "37.5037107773698",
            "longitude": "127.024335263404"
        },
        {
            "name": "방배다이치빌딩",
            "address": "서울특별시 서초구 방배로 114 (방배동)",
            "latitude": "37.484329",
            "longitude": "126.995872"
        },
        {
            "name": "센트럴F1",
            "address": "서울특별시 서초구 신반포로 176 (반포동)",
            "latitude": "37.505148",
            "longitude": "127.004395"
        },
        {
            "name": "서초역이화빌딩",
            "address": "서울특별시 서초구 반포대로21길 3 (서초동)",
            "latitude": "37.487931",
            "longitude": "127.009126"
        },
        {
            "name": "서초구청",
            "address": "서울특별시 서초구 남부순환로 2557 (서초동)",
            "latitude": "37.484353839",
            "longitude": "127.030090489"
        },
        {
            "name": "서초우성사거리",
            "address": "서울특별시 서초구 강남대로 343 (서초동)",
            "latitude": "37.493545",
            "longitude": "127.02943"
        },
        {
            "name": "이수역사거리",
            "address": "서울특별시 서초구 서초대로 3-4 (방배동, 방배디오슈페리움1)",
            "latitude": "37.48585",
            "longitude": "126.983027"
        },
        {
            "name": "강남대로신사",
            "address": "서울특별시 서초구 강남대로 595 (잠원동)",
            "latitude": "37.51489",
            "longitude": "127.019469"
        },
        {
            "name": "서울고속터미널",
            "address": "서울특별시 서초구 신반포로 194 (반포동)",
            "latitude": "37.5045697",
            "longitude": "127.0061603"
        },
        {
            "name": "방배",
            "address": "서울특별시 서초구 방배로 211",
            "latitude": "37.491914",
            "longitude": "126.99049739999998"
        },
        {
            "name": "방배카페거리",
            "address": "서울특별시 서초구 방배중앙로 162 (방배동)",
            "latitude": "37.4934767",
            "longitude": "126.9865297"
        },
        {
            "name": "서초법원",
            "address": "서울특별시 서초구 서초대로 274 (서초동)",
            "latitude": "37.492833",
            "longitude": "127.012043"
        },
        {
            "name": "청계산입구역",
            "address": "서울특별시 서초구 청계산로 203 (신원동)",
            "latitude": "37.447323",
            "longitude": "127.056250"
        },
        {
            "name": "사당로데오",
            "address": "서울특별시 서초구 방배천로 5-4(방배동)",
            "latitude": "37.4772752",
            "longitude": "126.98216049999996"
        },
        {
            "name": "파미에파크R",
            "address": "서울특별시 서초구 사평대로 205 (반포동) CENTRALCITY",
            "latitude": "37.5030521",
            "longitude": "127.004362"
        },
        {
            "name": "양재역",
            "address": "서울특별시 서초구 강남대로 202 (양재동) 모산빌딩",
            "latitude": "37.482379525",
            "longitude": "127.036853356"
        },
        {
            "name": "논현역",
            "address": "서울특별시 서초구 강남대로 557 (잠원동) 1~2층",
            "latitude": "37.5114376142061",
            "longitude": "127.020548691552"
        },
        {
            "name": "이수역",
            "address": "서울특별시 서초구 동작대로 112 (방배동)",
            "latitude": "37.4864664",
            "longitude": "126.98274029999993"
        },
        {
            "name": "내방역",
            "address": "서울특별시 서초구 방배로 184 (방배동) 대풍빌딩",
            "latitude": "37.490004",
            "longitude": "126.992455"
        },
        {
            "name": "서초파라곤",
            "address": "서울특별시 서초구 서초대로74길 29 (서초동) 서초파라곤",
            "latitude": "37.49494258899",
            "longitude": "127.027426341397"
        },
        {
            "name": "서울아트센터",
            "address": "서울특별시 서초구 남부순환로 2395 (서초동) 호경빌딩",
            "latitude": "37.480866",
            "longitude": "127.012368"
        },
        {
            "name": "서초중앙로",
            "address": "서울특별시 서초구 서초중앙로 225",
            "latitude": "37.501691",
            "longitude": "127.01152"
        },
        {
            "name": "센트럴시티",
            "address": "서울특별시 서초구 신반포로 176 (반포동)",
            "latitude": "37.504707",
            "longitude": "127.004459"
        },
        {
            "name": "방배역",
            "address": "서울특별시 서초구 방배로 84 (방배동)",
            "latitude": "37.48200755",
            "longitude": "126.9976438"
        },
        {
            "name": "반포역",
            "address": "서울특별시 서초구 신반포로 257 (잠원동) 신반포11차상가",
            "latitude": "37.508589",
            "longitude": "127.011959"
        },
        {
            "name": "남부터미널",
            "address": "서울특별시 서초구 서초중앙로 26, 래미안서초유니빌 1층 101호 (서초동)",
            "latitude": "37.48467334",
            "longitude": "127.0169464"
        },
        {
            "name": "뉴코아강남",
            "address": "서울특별시 서초구 잠원로 69 (잠원동) 킴스클럽",
            "latitude": "37.51031339",
            "longitude": "127.0069582"
        },
        {
            "name": "강남서초초교",
            "address": "서울특별시 서초구 서초대로77길 27, 유빌딩 1,2층 (서초동)",
            "latitude": "37.5000875",
            "longitude": "127.02549090000002"
        },
        {
            "name": "교대",
            "address": "서울특별시 서초구 서초중앙로 118 (서초동)",
            "latitude": "37.4923611",
            "longitude": "127.0142207"
        },
        {
            "name": "하이브랜드",
            "address": "서울특별시 서초구 매헌로 16, 리빙관 101호 (양재동)",
            "latitude": "37.46252023465575",
            "longitude": "127.03666795290289"
        },
        {
            "name": "영동2교",
            "address": "서울특별시 서초구 논현로 139, 대흥빌딩 (양재동)",
            "latitude": "37.48203954",
            "longitude": "127.0425748"
        },
        {
            "name": "남부터미널역5번출구",
            "address": "서울특별시 서초구 효령로 274 (서초동)",
            "latitude": "37.48436736",
            "longitude": "127.0142192"
        },
        {
            "name": "서래마을입구",
            "address": "서울특별시 서초구 서래로 48 (반포동)",
            "latitude": "37.49925284",
            "longitude": "126.9984801"
        },
        {
            "name": "몬테소리",
            "address": "서울특별시 서초구 강남대로 399 (서초동)",
            "latitude": "37.4982695",
            "longitude": "127.026865"
        },
        {
            "name": "서초역",
            "address": "서울특별시 서초구 반포대로 118 (서초동)",
            "latitude": "37.49067495",
            "longitude": "127.0086118"
        },
        {
            "name": "교대법원",
            "address": "서울특별시 서초구 서초중앙로 164 (서초동)",
            "latitude": "37.496329",
            "longitude": "127.013336"
        },
        {
            "name": "강남GT타워",
            "address": "서울특별시 서초구 서초대로 411, GT타워 (서초동)",
            "latitude": "37.4979079083082",
            "longitude": "127.026162553761"
        },
        {
            "name": "서초동",
            "address": "서울특별시 서초구 남부순환로339길 64, 현우빌딩 1층 (서초동)",
            "latitude": "37.485941",
            "longitude": "127.021525"
        },
        {
            "name": "서울교대",
            "address": "서울특별시 서초구 서초중앙로 64, 1층 (서초동)",
            "latitude": "37.487397",
            "longitude": "127.015134"
        },
        {
            "name": "강남에비뉴",
            "address": "서울특별시 서초구 서초대로77길 62, 강남역아이파크 B102~B105 (서초동)",
            "latitude": "37.5025778098288",
            "longitude": "127.024105881331"
        },
        {
            "name": "반포자이",
            "address": "서울특별시 서초구 잠원로 24 (반포동)",
            "latitude": "37.507170475349405",
            "longitude": "127.0099189083483"
        },
        {
            "name": "서초태우빌딩",
            "address": "서울특별시 서초구 강남대로 285 (서초동)",
            "latitude": "37.48870504886586",
            "longitude": "127.03158117446388"
        },
        {
            "name": "교대역3번출구",
            "address": "서울특별시 서초구 서초중앙로24길 10 (서초동)",
            "latitude": "37.4943456632732",
            "longitude": "127.014900469688"
        },
        {
            "name": "반포원베일리",
            "address": "서울특별시 서초구 반포대로 291 (반포동)",
            "latitude": "37.504657083267006",
            "longitude": "126.99903302367885"
        },
        {
            "name": "양재역신분당역사",
            "address": "서울특별시 서초구 남부순환로 2585 신분당선 양재역 지하1층",
            "latitude": "37.4839347328908",
            "longitude": "127.034544193436"
        },
        {
            "name": "강남역우송빌딩",
            "address": "서울특별시 서초구 서초대로73길 7 (서초동)",
            "latitude": "37.4981314601413",
            "longitude": "127.02527908458"
        },
        {
            "name": "남부순환로방배DT",
            "address": "서울특별시 서초구 남부순환로 2230 (방배동)",
            "latitude": "37.47325689751075",
            "longitude": "126.99600935915565"
        },
        {
            "name": "서이초교사거리",
            "address": "서울특별시 서초구 사임당로 143 (서초동)",
            "latitude": "37.4918146",
            "longitude": "127.0252252"
        },
        {
            "name": "서울웨이브아트센터",
            "address": "서울특별시 서초구 잠원로 145-35 (잠원동)",
            "latitude": "37.518807",
            "longitude": "127.00704"
        },
        {
            "name": "강남삼성타운",
            "address": "서울특별시 서초구 서초대로78길 24 (서초동)",
            "latitude": "37.49562035",
            "longitude": "127.0277144"
        },
        {
            "name": "길음역",
            "address": "서울특별시 성북구 정릉로 376 (돈암동)",
            "latitude": "37.602139",
            "longitude": "127.025271"
        },
        {
            "name": "미아이마트",
            "address": "서울특별시 성북구 도봉로 17 (길음동)",
            "latitude": "37.61054298669914",
            "longitude": "127.02998756720751"
        },
        {
            "name": "종암DT",
            "address": "서울특별시 성북구 종암로 17 (종암동)",
            "latitude": "37.5919525",
            "longitude": "127.0360401"
        },
        {
            "name": "미아",
            "address": "서울특별시 성북구 동소문로 314 (하월곡동)",
            "latitude": "37.607581",
            "longitude": "127.029303"
        },
        {
            "name": "성신여대정문",
            "address": "서울특별시 성북구 보문로34길 62 (동선동2가)",
            "latitude": "37.590910",
            "longitude": "127.018800"
        },
        {
            "name": "종암",
            "address": "서울특별시 성북구 종암로 122 (종암동)",
            "latitude": "37.601095",
            "longitude": "127.033847"
        },
        {
            "name": "삼선교",
            "address": "서울특별시 성북구 동소문로 10 (동소문동2가)",
            "latitude": "37.588696",
            "longitude": "127.00732070000003"
        },
        {
            "name": "월곡역",
            "address": "서울특별시 성북구 화랑로 76, 101-1호 (하월곡동)",
            "latitude": "37.60203",
            "longitude": "127.040643"
        },
        {
            "name": "고대",
            "address": "서울특별시 성북구 고려대로24길 51 (안암동5가)",
            "latitude": "37.583925",
            "longitude": "127.029594"
        },
        {
            "name": "현대미아",
            "address": "서울특별시 성북구 동소문로 315 (길음동) 지하1층",
            "latitude": "37.608513711399176",
            "longitude": "127.02917698842086"
        },
        {
            "name": "성신여대",
            "address": "서울특별시 성북구 동소문로24길 12 (동선동1가)",
            "latitude": "37.593135",
            "longitude": "127.018379"
        },
        {
            "name": "안암역",
            "address": "서울특별시 성북구 고려대로 102-2 (안암동5가)",
            "latitude": "37.586319",
            "longitude": "127.030556"
        },
        {
            "name": "한성대입구역",
            "address": "서울특별시 성북구 성북로 11 (성북동1가)",
            "latitude": "37.5890412145186",
            "longitude": "127.004897965888"
        },
        {
            "name": "길음뉴타운",
            "address": "서울특별시 성북구 길음로 11 (길음동, 길음역롯데캐슬트윈골드아파트)",
            "latitude": "37.603633",
            "longitude": "127.023459"
        },
        {
            "name": "고대안암병원",
            "address": "서울특별시 성북구 고려대로 73 (안암동5가)",
            "latitude": "37.586874",
            "longitude": "127.02811"
        },
        {
            "name": "장위뉴타운",
            "address": "서울특별시 성북구 장월로38길 4 (장위동)",
            "latitude": "37.618072316295915",
            "longitude": "127.05152854027804"
        },
        {
            "name": "성신여대입구역",
            "address": "서울특별시 성북구 동소문로 105 (동선동4가)",
            "latitude": "37.59304",
            "longitude": "127.016641"
        },
        {
            "name": "송파나루역DT",
            "address": "서울특별시 송파구 오금로 142 (송파동)",
            "latitude": "37.510976",
            "longitude": "127.110358"
        },
        {
            "name": "송파헬리오시티",
            "address": "서울특별시 송파구 송파대로 345 (가락동, 헬리오시티)",
            "latitude": "37.4977826892486",
            "longitude": "127.102851954992"
        },
        {
            "name": "잠실시그마타워",
            "address": "서울특별시 송파구 올림픽로 289 (신천동)",
            "latitude": "37.51461",
            "longitude": "127.102774"
        },
        {
            "name": "문정법원로R",
            "address": "서울특별시 송파구 송파대로 201 (문정동)",
            "latitude": "37.487356272840365",
            "longitude": "127.11911981125742"
        },
        {
            "name": "송파개롱역",
            "address": "서울특별시 송파구 오금로 420 (가락동)",
            "latitude": "37.49713613426668",
            "longitude": "127.13631299009975"
        },
        {
            "name": "문정하비오",
            "address": "서울특별시 송파구 송파대로 111 (문정동, 파크하비오) 204동 104호~107호",
            "latitude": "37.48211912934925",
            "longitude": "127.12354072397868"
        },
        {
            "name": "문정역",
            "address": "서울특별시 송파구 송파대로 167 (문정동)테라타워 B동 137호~139호,204호",
            "latitude": "37.48529649766194",
            "longitude": "127.12227677436003"
        },
        {
            "name": "잠실대교남단R",
            "address": "서울특별시 송파구 송파대로 570 타워 730 1층",
            "latitude": "37.515511",
            "longitude": "127.099006"
        },
        {
            "name": "송파위례",
            "address": "서울특별시 송파구 위례광장로 230 (장지동, 위례2차아이파크)",
            "latitude": "37.478416",
            "longitude": "127.143161"
        },
        {
            "name": "송파방이DT",
            "address": "서울특별시 송파구 오금로 241 (방이동)",
            "latitude": "37.506564",
            "longitude": "127.120495"
        },
        {
            "name": "올림픽평화의문",
            "address": "서울특별시 송파구 위례성대로 38 (방이동) 해태그린피아빌라트",
            "latitude": "37.5156426",
            "longitude": "127.11648190000005"
        },
        {
            "name": "송파아이파크",
            "address": "서울특별시 송파구 법원로 55 (문정동)",
            "latitude": "37.47979344097158",
            "longitude": "127.12242043651424"
        },
        {
            "name": "송파사거리",
            "address": "서울특별시 송파구 송파대로 386 (송파동)",
            "latitude": "37.5022788",
            "longitude": "127.1103904"
        },
        {
            "name": "석촌서호",
            "address": "서울특별시 송파구 석촌호수로 176 (삼전동)",
            "latitude": "37.5063929",
            "longitude": "127.0964684"
        },
        {
            "name": "문정로데오",
            "address": "서울특별시 송파구 동남로 141 (가락동)",
            "latitude": "37.491858429761606",
            "longitude": "127.12623104068281"
        },
        {
            "name": "올림픽훼미리",
            "address": "서울특별시 송파구 중대로 68 (문정동)",
            "latitude": "37.491616375205915",
            "longitude": "127.11626573028454"
        },
        {
            "name": "올림픽공원남문",
            "address": "서울특별시 송파구 위례성대로 102 (방이동)",
            "latitude": "37.5133",
            "longitude": "127.123113"
        },
        {
            "name": "방이역",
            "address": "서울특별시 송파구 마천로 53, 1~2층 (오금동)",
            "latitude": "37.5084904076542",
            "longitude": "127.126776485458"
        },
        {
            "name": "석촌호수",
            "address": "서울특별시 송파구 석촌호수로 262 (송파동)",
            "latitude": "37.50957859",
            "longitude": "127.10532641"
        },
        {
            "name": "잠실푸르지오월드",
            "address": "서울특별시 송파구 올림픽로35가길 9, 잠실푸르지오월드마크 1층 (신천동)",
            "latitude": "37.517287",
            "longitude": "127.103247"
        },
        {
            "name": "잠실새내역",
            "address": "서울특별시 송파구 올림픽로 96 (잠실동)",
            "latitude": "37.511679",
            "longitude": "127.081062"
        },
        {
            "name": "잠실역",
            "address": "서울특별시 송파구 송파대로 562 (신천동, 웰리스타워,삼성웰리스아파트) 1층,2층",
            "latitude": "37.515272",
            "longitude": "127.099231"
        },
        {
            "name": "갤러리아팰리스",
            "address": "서울특별시 송파구 올림픽로 212, 갤러리아 팰리스 (잠실동)",
            "latitude": "37.511561",
            "longitude": "127.093616"
        },
        {
            "name": "아시아선수촌",
            "address": "서울특별시 송파구 백제고분로 69 (잠실동)",
            "latitude": "37.51059",
            "longitude": "127.079047"
        },
        {
            "name": "올림픽아파트",
            "address": "서울특별시 송파구 양재대로 1220 (방이동)",
            "latitude": "37.515315",
            "longitude": "127.133237"
        },
        {
            "name": "가락본동",
            "address": "서울특별시 송파구 송파대로30길 13 (가락동)",
            "latitude": "37.494812392616524",
            "longitude": "127.11883481297143"
        },
        {
            "name": "석촌역",
            "address": "서울특별시 송파구 백제고분로 358, 1층 (석촌동)",
            "latitude": "37.50442905864979",
            "longitude": "127.1062991981057"
        },
        {
            "name": "가락시장역",
            "address": "서울특별시 송파구 중대로 121, 롯데캐슬 파인힐 1층 (가락동)",
            "latitude": "37.49442875605291",
            "longitude": "127.1217432178345"
        },
        {
            "name": "가든파이브",
            "address": "서울특별시 송파구 충민로 10 (문정동) 가든파이브툴",
            "latitude": "37.477974676564614",
            "longitude": "127.12118515527476"
        },
        {
            "name": "문정역2번출구",
            "address": "서울특별시 송파구 문정로 1 (문정동)",
            "latitude": "37.48629340180307",
            "longitude": "127.12320273731552"
        },
        {
            "name": "잠실본동",
            "address": "서울특별시 송파구 백제고분로 91 (잠실동), 1층",
            "latitude": "37.5086445885442",
            "longitude": "127.07949103207"
        },
        {
            "name": "송파NC",
            "address": "서울특별시 송파구 충민로 66 (문정동)  가든파이브라이프 패션관1층",
            "latitude": "37.47804418570353",
            "longitude": "127.12580079741947"
        },
        {
            "name": "송파거여역",
            "address": "서울특별시 송파구 오금로 493 (거여동)",
            "latitude": "37.49360000716603",
            "longitude": "127.14364544756283"
        },
        {
            "name": "몽촌토성역",
            "address": "서울특별시 송파구 위례성대로 6 (방이동)",
            "latitude": "37.516913",
            "longitude": "127.113127"
        },
        {
            "name": "송파KT",
            "address": "서울특별시 송파구 잠실로 209 (신천동), 오피스빌딩 1층 2~4호",
            "latitude": "37.51394208",
            "longitude": "127.10699228"
        },
        {
            "name": "문정법조타운 한양타워",
            "address": "서울특별시 송파구 법원로11길 12 (문정동)",
            "latitude": "37.485796586165364",
            "longitude": "127.11781422446037"
        },
        {
            "name": "송파마천사거리DT",
            "address": "서울특별시 송파구 거마로 78 (마천동)",
            "latitude": "37.499829",
            "longitude": "127.147672"
        },
        {
            "name": "목동파리공원",
            "address": "서울특별시 양천구 목동동로 377 (목동)",
            "latitude": "37.535336",
            "longitude": "126.878852"
        },
        {
            "name": "등촌역",
            "address": "서울특별시 양천구 공항대로 566 (목동) 1층 2층",
            "latitude": "37.548884",
            "longitude": "126.86807"
        },
        {
            "name": "목동행복한",
            "address": "서울특별시 양천구 목동동로 309 (목동)",
            "latitude": "37.52972767740793",
            "longitude": "126.8759452307731"
        },
        {
            "name": "신정DT",
            "address": "서울특별시 양천구 신월로 341 (신정동)",
            "latitude": "37.521993",
            "longitude": "126.858865"
        },
        {
            "name": "목동역",
            "address": "서울특별시 양천구 목동로 203 (신정동) 1층일부",
            "latitude": "37.526684",
            "longitude": "126.863986"
        },
        {
            "name": "목동오목로",
            "address": "서울특별시 양천구 오목로 279 (목동) 102,103,104,105호",
            "latitude": "37.525923",
            "longitude": "126.868438"
        },
        {
            "name": "목동8단지",
            "address": "서울특별시 양천구 목동서로 299 (신정동)",
            "latitude": "37.520518",
            "longitude": "126.868841"
        },
        {
            "name": "오목교역",
            "address": "서울특별시 양천구 오목로 354 (목동)",
            "latitude": "37.523855929257174",
            "longitude": "126.87644987818643"
        },
        {
            "name": "신월IC DT",
            "address": "서울특별시 양천구 남부순환로 430 (신월동)",
            "latitude": "37.529502437956104",
            "longitude": "126.83220232277918"
        },
        {
            "name": "목동7단지",
            "address": "서울특별시 양천구 목동서로 213 (목동) 세신비젼프라자",
            "latitude": "37.528012",
            "longitude": "126.87053"
        },
        {
            "name": "목동5단지",
            "address": "서울특별시 양천구 목동동로 411, 1동 116호(목동, 부영그린타운3차)",
            "latitude": "37.5363856363692",
            "longitude": "126.88211754815594"
        },
        {
            "name": "목동",
            "address": "서울특별시 양천구 목동서로 67 (목동) 우성에펠타운",
            "latitude": "37.53638383",
            "longitude": "126.8785597"
        },
        {
            "name": "현대목동",
            "address": "서울특별시 양천구 목동동로 257 (목동, 현대하이페리온) 지하2층",
            "latitude": "37.526627173612354",
            "longitude": "126.87494068240842"
        },
        {
            "name": "목동SBS",
            "address": "서울특별시 양천구 목동서로 161 (목동), 101호, 201호",
            "latitude": "37.52896162444895",
            "longitude": "126.87363009594163"
        },
        {
            "name": "목동트라팰리스",
            "address": "서울특별시 양천구 오목로 299 (목동)",
            "latitude": "37.5255",
            "longitude": "126.8702"
        },
        {
            "name": "목동10단지",
            "address": "서울특별시 양천구 목동서로 401 (신정동, 대림아크로빌), 상가A동 101,101-1호",
            "latitude": "37.515425616177",
            "longitude": "126.859603067999"
        },
        {
            "name": "신월동DT",
            "address": "서울특별시 양천구 남부순환로 319 (신월동)",
            "latitude": "37.5382923530559",
            "longitude": "126.827101409243"
        },
        {
            "name": "타임스퀘어R",
            "address": "서울특별시 영등포구 영중로 15 지하 1층 (영등포동4가)",
            "latitude": "37.51755",
            "longitude": "126.90516"
        },
        {
            "name": "샛강역",
            "address": "서울특별시 영등포구 여의대방로 376 (여의도동)",
            "latitude": "37.518332317007065",
            "longitude": "126.93120207357978"
        },
        {
            "name": "영등포역",
            "address": "서울특별시 영등포구 경인로 870 (영등포동1가)",
            "latitude": "37.517020000646795",
            "longitude": "126.9091910464292"
        },
        {
            "name": "당산대로",
            "address": "서울특별시 영등포구 양평로 22 (당산동6가)",
            "latitude": "37.533121",
            "longitude": "126.903804"
        },
        {
            "name": "여의도IFC몰(L1)R",
            "address": "서울특별시 영등포구 국제금융로 10 (여의도동)  지하1층 178호",
            "latitude": "37.525386315990104",
            "longitude": "126.92606524560121"
        },
        {
            "name": "여의도KBS R",
            "address": "서울특별시 영등포구 의사당대로 26 (여의도동)",
            "latitude": "37.526596",
            "longitude": "126.918456"
        },
        {
            "name": "여의도화재보험",
            "address": "서울특별시 영등포구 국제금융로6길 38 (여의도동)",
            "latitude": "37.521345",
            "longitude": "126.926004"
        },
        {
            "name": "국회대로",
            "address": "서울특별시 영등포구 국회대로 786 (여의도동)",
            "latitude": "37.53026",
            "longitude": "126.919549"
        },
        {
            "name": "영등포KT",
            "address": "서울특별시 영등포구 영중로 119 (영등포동8가)",
            "latitude": "37.526419",
            "longitude": "126.905314"
        },
        {
            "name": "여의도공원R",
            "address": "서울특별시 영등포구 여의공원로 101 (여의도동)",
            "latitude": "37.529129532990446",
            "longitude": "126.92535729471122"
        },
        {
            "name": "국회의사당역",
            "address": "서울특별시 영등포구 의사당대로 8 (여의도동)",
            "latitude": "37.52805409993459",
            "longitude": "126.91711953333622"
        },
        {
            "name": "여의도역R",
            "address": "서울특별시 영등포구 의사당대로 83 (여의도동) 1층",
            "latitude": "37.523328",
            "longitude": "126.923439"
        },
        {
            "name": "선유동이레빌딩",
            "address": "서울특별시 영등포구 선유동2로 57 (양평제1동) 이레빌딩",
            "latitude": "37.534277678053385",
            "longitude": "126.89697631969191"
        },
        {
            "name": "동여의도",
            "address": "서울특별시 영등포구 국제금융로 86 (여의도동) 롯데캐슬 아이비",
            "latitude": "37.52063015571123",
            "longitude": "126.93168638298105"
        },
        {
            "name": "여의도ABL타워",
            "address": "서울특별시 영등포구 의사당대로 147 (여의도동) 알리안츠타워",
            "latitude": "37.51892955155552",
            "longitude": "126.92796068994703"
        },
        {
            "name": "영등포신길",
            "address": "서울특별시 영등포구 신길로 137 (신길동) 1,2층",
            "latitude": "37.504566",
            "longitude": "126.910073"
        },
        {
            "name": "문래역",
            "address": "서울특별시 영등포구 당산로 34 (문래동3가)",
            "latitude": "37.517446",
            "longitude": "126.895258"
        },
        {
            "name": "당산",
            "address": "서울특별시 영등포구 양평로 64 (당산동6가)",
            "latitude": "37.534994324005595",
            "longitude": "126.90000472153657"
        },
        {
            "name": "여의도한양증권",
            "address": "서울특별시 영등포구 국제금융로6길 7 (여의도동) 한양증권",
            "latitude": "37.522444156811076",
            "longitude": "126.92910834211145"
        },
        {
            "name": "여의도일신",
            "address": "서울특별시 영등포구 은행로 11 (여의도동) 1층 1부",
            "latitude": "37.52774993247095",
            "longitude": "126.92027623791678"
        },
        {
            "name": "하이테크시티",
            "address": "서울특별시 영등포구 경인로 775 (문래동3가) 에이스하이테크시티",
            "latitude": "37.51445587278118",
            "longitude": "126.89987943038909"
        },
        {
            "name": "여의도",
            "address": "서울특별시 영등포구 국제금융로2길 28 (여의도동)",
            "latitude": "37.524166792417056",
            "longitude": "126.92461277916105"
        },
        {
            "name": "롯데캐슬여의도",
            "address": "서울특별시 영등포구 의사당대로 127 (여의도동, 롯데캐슬엠파이어) 1층 104호",
            "latitude": "37.52025214",
            "longitude": "126.9263678"
        },
        {
            "name": "문래동",
            "address": "서울특별시 영등포구 선유로 64, 대창타운빌 1층 (문래동3가)",
            "latitude": "37.519602",
            "longitude": "126.889652"
        },
        {
            "name": "여의도호성",
            "address": "서울특별시 영등포구 여의대방로65길 24, 호성빌딩 1층 (여의도동)",
            "latitude": "37.52047101976742",
            "longitude": "126.92920636135348"
        },
        {
            "name": "타임스퀘어B2",
            "address": "서울특별시 영등포구 영중로 15, 지하2층 (영등포동4가)",
            "latitude": "37.516922979246246",
            "longitude": "126.90330917802369"
        },
        {
            "name": "영등포본동",
            "address": "서울특별시 영등포구 영등포로 254 (영등포동3가)",
            "latitude": "37.518713",
            "longitude": "126.909559"
        },
        {
            "name": "타임스퀘어2F",
            "address": "서울특별시 영등포구 영중로 15 지상2층 (영등포동4가)",
            "latitude": "37.51680365429925",
            "longitude": "126.90338002881407"
        },
        {
            "name": "여의도의사당",
            "address": "서울특별시 영등포구 국회대로74길 12 (여의도동)",
            "latitude": "37.530023",
            "longitude": "126.92109"
        },
        {
            "name": "여의도IFC(1F)",
            "address": "서울특별시 영등포구 국제금융로 10 (여의도동)",
            "latitude": "37.525273",
            "longitude": "126.924668"
        },
        {
            "name": "여의도교직원공제회",
            "address": "서울특별시 영등포구 여의나루로 50 (여의도동)",
            "latitude": "37.52191490479988",
            "longitude": "126.92558789987339"
        },
        {
            "name": "여의도원센티널",
            "address": "서울특별시 영등포구 여의대로 70 (여의도동)",
            "latitude": "37.52512162971283",
            "longitude": "126.92426112308122"
        },
        {
            "name": "선유도역 1번출구",
            "address": "서울특별시 영등포구 양평로 128 (양평동5가)양평로 128",
            "latitude": "37.538333",
            "longitude": "126.893612"
        },
        {
            "name": "영등포시장역",
            "address": "서울특별시 영등포구 영중로 79 (영등포동7가)",
            "latitude": "37.52349264546045",
            "longitude": "126.90497778447685"
        },
        {
            "name": "영등포구청역",
            "address": "서울특별시 영등포구 국회대로 558",
            "latitude": "37.527967742744615",
            "longitude": "126.89620438907397"
        },
        {
            "name": "서울양평역",
            "address": "서울특별시 영등포구 선유서로24길 6 (양평동1가, 영등포 중흥 S-CLASS)",
            "latitude": "37.523128",
            "longitude": "126.885809"
        },
        {
            "name": "영등포시장교차로",
            "address": "서울특별시 영등포구 영중로 45 (영등포동6가)",
            "latitude": "37.5204239",
            "longitude": "126.904446"
        },
        {
            "name": "더현대서울(B2)R",
            "address": "서울특별시 영등포구 여의대로 108 (여의도동)",
            "latitude": "37.5258834618679",
            "longitude": "126.928658229468"
        },
        {
            "name": "여의도브라이튼",
            "address": "서울특별시 영등포구 국제금융로 39 (여의도동, 브라이튼 여의도), 1층",
            "latitude": "37.5241006226166",
            "longitude": "126.929817318958"
        },
        {
            "name": "여의도TP타워",
            "address": "서울특별시 영등포구 의사당대로 96 (여의도동)",
            "latitude": "37.521413300528906",
            "longitude": "126.92317041726257"
        },
        {
            "name": "당산역사거리",
            "address": "서울특별시 영등포구 양평로 47 (당산동5가)",
            "latitude": "37.53409659351415",
            "longitude": "126.90121370080551"
        },
        {
            "name": "신풍역",
            "address": "서울특별시 영등포구 신풍로 23 (신길동)",
            "latitude": "37.5003469620528",
            "longitude": "126.908438384002"
        },
        {
            "name": "불광역",
            "address": "서울특별시 은평구 통일로 715 (대조동)",
            "latitude": "37.609382",
            "longitude": "126.9303971"
        },
        {
            "name": "구파발사거리",
            "address": "서울특별시 은평구 진관3로 21 은평엘크루 101동 105-108호",
            "latitude": "37.639617",
            "longitude": "126.91881"
        },
        {
            "name": "연신내역사거리",
            "address": "서울특별시 은평구 통일로 842 (불광동)",
            "latitude": "37.618773940257306",
            "longitude": "126.92179889674078"
        },
        {
            "name": "연신내",
            "address": "서울특별시 은평구 통일로 867 (갈현동)",
            "latitude": "37.6203213",
            "longitude": "126.9198976"
        },
        {
            "name": "구파발역",
            "address": "서울특별시 은평구 진관2로 12",
            "latitude": "37.63446",
            "longitude": "126.918881"
        },
        {
            "name": "은평구청입구",
            "address": "서울특별시 은평구 은평로 170 (응암동)",
            "latitude": "37.601042",
            "longitude": "126.926789"
        },
        {
            "name": "은평이마트",
            "address": "서울특별시 은평구 은평로 111 (응암동)",
            "latitude": "37.60037923",
            "longitude": "126.9202735"
        },
        {
            "name": "구산역",
            "address": "서울특별시 은평구 연서로 146 (대조동)",
            "latitude": "37.611745",
            "longitude": "126.917678"
        },
        {
            "name": "불광역8번출구",
            "address": "서울특별시 은평구 통일로 746 (불광동)",
            "latitude": "37.61199",
            "longitude": "126.9289"
        },
        {
            "name": "응암역2번출구",
            "address": "서울특별시 은평구 연서로 17 (역촌동)",
            "latitude": "37.6006318",
            "longitude": "126.915779"
        },
        {
            "name": "수색",
            "address": "서울특별시 은평구 수색로 216 (수색동)",
            "latitude": "37.58006406944348",
            "longitude": "126.89956239090266"
        },
        {
            "name": "새절역",
            "address": "서울특별시 은평구 증산로 371 (신사동)",
            "latitude": "37.5894266730207",
            "longitude": "126.912863456524"
        },
        {
            "name": "더북한산",
            "address": "서울특별시 은평구 대서문길 24-11 (진관동)",
            "latitude": "37.6554576593266",
            "longitude": "126.947556374345"
        },
        {
            "name": "녹번역",
            "address": "서울특별시 은평구 통일로 636 (녹번동) 110,111,112,113,114,115호",
            "latitude": "37.603307621312325",
            "longitude": "126.93528567756574"
        },
        {
            "name": "진관DT",
            "address": "서울특별시 은평구 연서로 645 (진관동)",
            "latitude": "37.6501787",
            "longitude": "126.9361968"
        },
        {
            "name": "연신내역5번출구",
            "address": "서울특별시 은평구 연서로 222 (대조동), 1층",
            "latitude": "37.6181353632704",
            "longitude": "126.920381333406"
        },
        {
            "name": "연합뉴스",
            "address": "서울특별시 종로구 율곡로2길 25 (수송동)",
            "latitude": "37.57462713751161",
            "longitude": "126.98047541991131"
        },
        {
            "name": "혜화역",
            "address": "서울특별시 종로구 대학로12길 4 (동숭동)1~2층",
            "latitude": "37.5824779",
            "longitude": "127.0021850"
        },
        {
            "name": "경희궁로",
            "address": "서울특별시 종로구 새문안로3길 15 (당주동)",
            "latitude": "37.571759",
            "longitude": "126.972343"
        },
        {
            "name": "강북삼성병원",
            "address": "서울특별시 종로구 새문안로 29 (평동) C관 5층",
            "latitude": "37.568319409900404",
            "longitude": "126.96694203403295"
        },
        {
            "name": "종로평창동",
            "address": "서울특별시 종로구 평창12길 3 (평창동)",
            "latitude": "37.60614770769474",
            "longitude": "126.96736414444056"
        },
        {
            "name": "광화문우체국",
            "address": "서울특별시 종로구 종로 6 (서린동)",
            "latitude": "37.57000686119245",
            "longitude": "126.9780599046084"
        },
        {
            "name": "종로R",
            "address": "서울특별시 종로구 종로 51 (종로2가)",
            "latitude": "37.5708",
            "longitude": "126.9834"
        },
        {
            "name": "독립문역",
            "address": "서울특별시 종로구 송월길 155 경희궁자이 4단지 1층 팰리스애비뉴 4114~4119호",
            "latitude": "37.571432",
            "longitude": "126.961269"
        },
        {
            "name": "정부서울청사R",
            "address": "서울특별시 종로구 새문안로5가길 28 (적선동)",
            "latitude": "37.574621312530724",
            "longitude": "126.97367761929035"
        },
        {
            "name": "종로구청",
            "address": "서울특별시 종로구 삼봉로 71 (수송동)",
            "latitude": "37.572498614917706",
            "longitude": "126.98095141204923"
        },
        {
            "name": "북촌로",
            "address": "서울특별시 종로구 북촌로4길 23 (계동)",
            "latitude": "37.579419015932245",
            "longitude": "126.98648560012543"
        },
        {
            "name": "종로수송",
            "address": "서울특별시 종로구 종로5길 30 (청진동) 1~3층",
            "latitude": "37.57165162614545",
            "longitude": "126.98062335393885"
        },
        {
            "name": "새문안로",
            "address": "서울특별시 종로구 새문안로 92 (신문로1가) 광화문오피시아빌딩",
            "latitude": "37.569853082636385",
            "longitude": "126.97499519103074"
        },
        {
            "name": "안국",
            "address": "서울특별시 종로구 북촌로 5-1 (재동)",
            "latitude": "37.577393946851735",
            "longitude": "126.98576427427058"
        },
        {
            "name": "삼청동",
            "address": "서울특별시 종로구 삼청로 111-1 (삼청동)",
            "latitude": "37.58541226323984",
            "longitude": "126.98191331140823"
        },
        {
            "name": "광화문D타워",
            "address": "서울특별시 종로구 종로3길 17 (청진동) D타워",
            "latitude": "37.57049132960646",
            "longitude": "126.97907003783457"
        },
        {
            "name": "적선",
            "address": "서울특별시 종로구 새문안로5길 55, 노스게이트빌딩 1층 (적선동)",
            "latitude": "37.57529940979838",
            "longitude": "126.97412453401081"
        },
        {
            "name": "인사",
            "address": "서울특별시 종로구 인사동길 14 (인사동)",
            "latitude": "37.57220884263517",
            "longitude": "126.98679819956659"
        },
        {
            "name": "광화문",
            "address": "서울특별시 종로구 세종대로 167 (세종로)",
            "latitude": "37.571254401637304",
            "longitude": "126.97631064081757"
        },
        {
            "name": "성대입구",
            "address": "서울특별시 종로구 창경궁로 235 (명륜3가)",
            "latitude": "37.582892",
            "longitude": "126.998392"
        },
        {
            "name": "스페이스본",
            "address": "서울특별시 종로구 사직로8길 4 (사직동) 광화문 풍림스페이스본",
            "latitude": "37.57493107689841",
            "longitude": "126.96921731857209"
        },
        {
            "name": "주얼리시티",
            "address": "서울특별시 종로구 종로 183 (인의동) 효성주얼리시티",
            "latitude": "37.5714829206881",
            "longitude": "126.998666645245"
        },
        {
            "name": "종각",
            "address": "서울특별시 종로구 종로 64 (종로2가)",
            "latitude": "37.57001689280663",
            "longitude": "126.98450354974083"
        },
        {
            "name": "동숭로아트",
            "address": "서울특별시 종로구 동숭길 110 (동숭동)",
            "latitude": "37.582969",
            "longitude": "127.003876"
        },
        {
            "name": "종로관철",
            "address": "서울특별시 종로구 종로12길 21, 2층 (관철동)",
            "latitude": "37.56913860117361",
            "longitude": "126.98593280684017"
        },
        {
            "name": "경복궁역",
            "address": "서울특별시 종로구 자하문로4길 6, 1층 (통의동)",
            "latitude": "37.5771508",
            "longitude": "126.97274530000004"
        },
        {
            "name": "이마빌딩",
            "address": "서울특별시 종로구 종로1길 42 (수송동)",
            "latitude": "37.5738637",
            "longitude": "126.97897149999994"
        },
        {
            "name": "마로니에공원",
            "address": "서울특별시 종로구 대학로 116, 1-2층 (동숭동)",
            "latitude": "37.58154296",
            "longitude": "127.0023412"
        },
        {
            "name": "종로3가",
            "address": "서울특별시 종로구 종로 113-1, 1-4층 (종로3가)",
            "latitude": "37.57056485920516",
            "longitude": "126.99021701586494"
        },
        {
            "name": "대학로",
            "address": "서울특별시 종로구 대학로 57, 홍익대학교 대학로캠퍼스 內 (연건동)",
            "latitude": "37.5764916392943",
            "longitude": "127.001470988378"
        },
        {
            "name": "경복궁사거리",
            "address": "서울특별시 종로구 율곡로 6, B동 101호(중학동, 트윈트리타워)",
            "latitude": "37.575615939508076",
            "longitude": "126.9802374336133"
        },
        {
            "name": "종로관수",
            "address": "서울특별시 종로구 삼일대로20길 13 (관수동)",
            "latitude": "37.56971102439499",
            "longitude": "126.98863522829857"
        },
        {
            "name": "그랑서울",
            "address": "서울특별시 종로구 종로 33 (청진동)",
            "latitude": "37.57078676546426",
            "longitude": "126.98120937021599"
        },
        {
            "name": "광화문교보문고",
            "address": "서울특별시 종로구 종로 1 (종로1가)",
            "latitude": "37.571017",
            "longitude": "126.977937"
        },
        {
            "name": "광장마켓",
            "address": "서울특별시 종로구 창경궁로 88 (예지동)",
            "latitude": "37.57020711871311",
            "longitude": "127.00020658213105"
        },
        {
            "name": "정동",
            "address": "서울특별시 종로구 새문안로 42 (신문로2가)",
            "latitude": "37.56866486265962",
            "longitude": "126.97002074047501"
        },
        {
            "name": "종로플레이스",
            "address": "서울특별시 종로구 창경궁로 120 (인의동)",
            "latitude": "37.57305",
            "longitude": "126.9979"
        },
        {
            "name": "강북삼성병원1층",
            "address": "서울특별시 종로구 새문안로 29 (평동) A관 1층",
            "latitude": "37.568546",
            "longitude": "126.96756"
        },
        {
            "name": "동숭길입구",
            "address": "서울특별시 종로구 대학로 146 (혜화동)",
            "latitude": "37.5842",
            "longitude": "127.002"
        },
        {
            "name": "서울대치과병원",
            "address": "서울특별시 종로구 대학로 101 서울대학교 치과병원 신관1층",
            "latitude": "37.577331",
            "longitude": "127.000348"
        },
        {
            "name": "서대문적십자",
            "address": "서울특별시 종로구 새문안로 9 (평동) 서울적십자병원 별관 상가동 1층 B호",
            "latitude": "37.56678781817199",
            "longitude": "126.96730492051981"
        },
        {
            "name": "서대문역",
            "address": "서울특별시 종로구 통일로 134 (평동)",
            "latitude": "37.56700593708681",
            "longitude": "126.96598615191152"
        },
        {
            "name": "숭례문북창",
            "address": "서울특별시 중구 세종대로12길 12 (남대문로4가)",
            "latitude": "37.561725",
            "longitude": "126.976838"
        },
        {
            "name": "을지로4가역",
            "address": "서울특별시 중구 을지로 170 (을지로4가)",
            "latitude": "37.56634407411786",
            "longitude": "126.99753246143461"
        },
        {
            "name": "동대문두타",
            "address": "서울특별시 중구 장충단로 275 (을지로6가)",
            "latitude": "37.5691",
            "longitude": "127.0088"
        },
        {
            "name": "대한상공회의소R",
            "address": "서울특별시 중구 세종대로 39 (남대문로4가) 1층",
            "latitude": "37.560938",
            "longitude": "126.973702"
        },
        {
            "name": "국립중앙의료원",
            "address": "서울특별시 중구 을지로 251 (을지로6가)",
            "latitude": "37.5665160",
            "longitude": "127.0062376"
        },
        {
            "name": "동국대",
            "address": "서울특별시 중구 서애로 1길 11",
            "latitude": "37.561542",
            "longitude": "126.998437"
        },
        {
            "name": "동대문공원",
            "address": "서울특별시 중구 장충단로 229 (광희동1가)",
            "latitude": "37.565133",
            "longitude": "127.007191"
        },
        {
            "name": "을지로국제빌딩",
            "address": "서울특별시 중구 남대문로 109 (다동)",
            "latitude": "37.566952",
            "longitude": "126.982219"
        },
        {
            "name": "동대입구역",
            "address": "서울특별시 중구 장충단로 166 (장충동1가)",
            "latitude": "37.5596804372304",
            "longitude": "127.006202929994"
        },
        {
            "name": "신당역사거리",
            "address": "서울특별시 중구 다산로 258 (흥인동)",
            "latitude": "37.565807",
            "longitude": "127.01643"
        },
        {
            "name": "연세세브란스",
            "address": "서울특별시 중구 통일로 10 (남대문로5가)",
            "latitude": "37.557207",
            "longitude": "126.97354"
        },
        {
            "name": "회현역",
            "address": "서울특별시 중구 퇴계로 72 (회현동) 리더스뷰남산",
            "latitude": "37.55947242829924",
            "longitude": "126.98072554032831"
        },
        {
            "name": "을지로경기빌딩",
            "address": "서울특별시 중구 남대문로10길 9 (삼각동) 경기빌딩",
            "latitude": "37.56707721942303",
            "longitude": "126.98322227123015"
        },
        {
            "name": "을지로2가",
            "address": "서울특별시 중구 삼일대로 358 (을지로2가)",
            "latitude": "37.566347",
            "longitude": "126.988066"
        },
        {
            "name": "신세계본점6F",
            "address": "서울특별시 중구 퇴계로 77 (충무로1가)",
            "latitude": "37.560381",
            "longitude": "126.980758"
        },
        {
            "name": "서울중앙우체국",
            "address": "서울특별시 중구 소공로 70 (충무로 1가) 서울 중앙 우체국",
            "latitude": "37.561678",
            "longitude": "126.982117"
        },
        {
            "name": "한국프레스센터",
            "address": "서울특별시 중구 세종대로 124 (태평로1가)",
            "latitude": "37.56724756017782",
            "longitude": "126.9780493948243"
        },
        {
            "name": "명동중앙로",
            "address": "서울특별시 중구 명동길 60 (명동 2가)",
            "latitude": "37.5637485",
            "longitude": "126.9857723"
        },
        {
            "name": "약수역",
            "address": "서울특별시 중구 다산로 129 (신당동)",
            "latitude": "37.555437",
            "longitude": "127.0107253"
        },
        {
            "name": "중구저동",
            "address": "서울특별시 중구 수표로 34 (저동2가)",
            "latitude": "37.5643686",
            "longitude": "126.9903382"
        },
        {
            "name": "명동길",
            "address": "서울특별시 중구 명동10길 41",
            "latitude": "37.5620695",
            "longitude": "126.9858669"
        },
        {
            "name": "서소문로",
            "address": "서울특별시 중구 서소문로 120 (서소문동) 대한빌딩",
            "latitude": "37.563006",
            "longitude": "126.974546"
        },
        {
            "name": "신당역",
            "address": "서울특별시 중구 퇴계로 385, 1층 (흥인동)",
            "latitude": "37.5654033985295",
            "longitude": "127.014352404697"
        },
        {
            "name": "명동메트로",
            "address": "서울특별시 중구 명동9가길 14 (을지로1가) 메트로호텔",
            "latitude": "37.565118",
            "longitude": "126.983681"
        },
        {
            "name": "숭례문",
            "address": "서울특별시 중구 세종대로 17, 그레이츠 숭례 1층 (남대문로5가)",
            "latitude": "37.55874473",
            "longitude": "126.9730952"
        },
        {
            "name": "순화동더샵",
            "address": "서울특별시 중구 칠패로 27, 1층 (순화동)",
            "latitude": "37.559992",
            "longitude": "126.971851"
        },
        {
            "name": "환구단",
            "address": "서울특별시 중구 소공로 112 (소공동)",
            "latitude": "37.56459884548825",
            "longitude": "126.9792301485792"
        },
        {
            "name": "무교동",
            "address": "서울특별시 중구 무교로 21 (무교동) 코오롱빌딩 1층",
            "latitude": "37.567928021468916",
            "longitude": "126.9792065857694"
        },
        {
            "name": "문화일보",
            "address": "서울특별시 중구 새문안로 22 (충정로1가) 문화일보",
            "latitude": "37.56712291",
            "longitude": "126.9686642"
        },
        {
            "name": "태평로",
            "address": "서울특별시 중구 세종대로 72, 대영빌딩 1층 (태평로2가)",
            "latitude": "37.56248285",
            "longitude": "126.9767928"
        },
        {
            "name": "퍼시픽타워",
            "address": "서울특별시 중구 세종대로9길 41, 퍼시픽타워 1층 (서소문동)",
            "latitude": "37.56132157",
            "longitude": "126.9730264"
        },
        {
            "name": "남산단암",
            "address": "서울특별시 중구 소월로 10, 단암빌딩 (남대문로5가)",
            "latitude": "37.55853622",
            "longitude": "126.9754585"
        },
        {
            "name": "황학캐슬",
            "address": "서울특별시 중구 청계천로 400 (황학동) 롯데캐슬베네치아",
            "latitude": "37.5714",
            "longitude": "127.0231"
        },
        {
            "name": "을지로삼화타워",
            "address": "서울특별시 중구 을지로5길 16 (을지로2가) 1층",
            "latitude": "37.566902",
            "longitude": "126.984707"
        },
        {
            "name": "소공로",
            "address": "서울특별시 중구 남대문로7길 19, 삼영빌딩 1층 일부 (소공동)",
            "latitude": "37.563883",
            "longitude": "126.980849"
        },
        {
            "name": "을지로한국빌딩",
            "address": "서울특별시 중구 을지로 50, 1층 (을지로 2가)",
            "latitude": "37.565722",
            "longitude": "126.98329"
        },
        {
            "name": "시청",
            "address": "서울특별시 중구 을지로 19, 삼성화재삼성빌딩 1층 (을지로1가)",
            "latitude": "37.56629",
            "longitude": "126.979808"
        },
        {
            "name": "명동역",
            "address": "서울특별시 중구 퇴계로 101, 건물 전체 (충무로 1가)",
            "latitude": "37.5608622201549",
            "longitude": "126.983105390255"
        },
        {
            "name": "장충라운지R",
            "address": "서울특별시 중구 장충단로4길 25 (장충동1가)",
            "latitude": "37.561036913264",
            "longitude": "127.007334747398"
        },
        {
            "name": "충무로",
            "address": "서울특별시 중구 충무로 3 (필동1가)",
            "latitude": "37.5614959808102",
            "longitude": "126.992823097196"
        },
        {
            "name": "이마트타워",
            "address": "서울특별시 중구 세종대로7길 37 (순화동) 1층",
            "latitude": "37.5607434636967",
            "longitude": "126.972528391958"
        },
        {
            "name": "동호로",
            "address": "서울특별시 중구 동호로 171 (신당동)",
            "latitude": "37.553478403261",
            "longitude": "127.011305155237"
        },
        {
            "name": "무교로",
            "address": "서울특별시 중구 무교로 15 (무교동)",
            "latitude": "37.56722071682264",
            "longitude": "126.97907661254083"
        },
        {
            "name": "청계크리스탈스퀘어",
            "address": "서울특별시 중구 청계천로 106 (수표동)",
            "latitude": "37.5679",
            "longitude": "126.98933"
        },
        {
            "name": "숭례문SG타워",
            "address": "서울특별시 중구 세종대로 14 (남대문로5가)",
            "latitude": "37.5581293",
            "longitude": "126.9742637"
        },
        {
            "name": "세종대로",
            "address": "서울특별시 중구 세종대로 135-5 (태평로1가)",
            "latitude": "37.568678",
            "longitude": "126.976493"
        },
        {
            "name": "동대문디자인플라자",
            "address": "서울특별시 중구 을지로 281 (을지로7가) 디자인장터",
            "latitude": "37.5675",
            "longitude": "127.0094"
        },
        {
            "name": "별다방",
            "address": "서울특별시 중구 퇴계로 100 (회현동2가)",
            "latitude": "37.5602013",
            "longitude": "126.9829327"
        },
        {
            "name": "포포인츠명동",
            "address": "서울특별시 중구 삼일대로10길 36 (저동2가)",
            "latitude": "37.5657211",
            "longitude": "126.9893426"
        },
        {
            "name": "한국은행교차로",
            "address": "서울특별시 중구 남대문로 55 (남대문로2가)",
            "latitude": "37.562263",
            "longitude": "126.981169"
        },
        {
            "name": "명동남산",
            "address": "서울특별시 중구 퇴계로 132 (남산동3가)",
            "latitude": "37.560809",
            "longitude": "126.986397"
        },
        {
            "name": "명일역",
            "address": "서울특별시 강동구 양재대로 1647 (명일동)",
            "latitude": "37.55255451856903",
            "longitude": "127.14388583677322"
        },
        {
            "name": "강동구청DT",
            "address": "서울특별시 강동구 성내로 32 (성내동)",
            "latitude": "37.52938776679806",
            "longitude": "127.12384773690836"
        },
        {
            "name": "강동암사DT",
            "address": "서울특별시 강동구 고덕로 43 (암사동)",
            "latitude": "37.555073228709134",
            "longitude": "127.12992233765308"
        },
        {
            "name": "굽은다리역",
            "address": "서울특별시 강동구 양재대로 1568 (명일동, 원일타워)",
            "latitude": "37.54526203653031",
            "longitude": "127.14298353027375"
        },
        {
            "name": "강동역",
            "address": "서울특별시 강동구 천호대로 1089 (천호동, 강동 헤르셔)",
            "latitude": "37.536047",
            "longitude": "127.133086"
        },
        {
            "name": "둔촌동",
            "address": "서울특별시 강동구 양재대로 1303 (성내동) 평원빌딩",
            "latitude": "37.52264171306811",
            "longitude": "127.13398661016131"
        },
        {
            "name": "천호이마트",
            "address": "서울특별시 강동구 천호대로 1015-14 (천호동) 이마트별관",
            "latitude": "37.538984278389535",
            "longitude": "127.12517047134832"
        },
        {
            "name": "길동역",
            "address": "서울특별시 강동구 양재대로 1487 (길동)",
            "latitude": "37.53870166831661",
            "longitude": "127.14013947484787"
        },
        {
            "name": "상일동",
            "address": "서울특별시 강동구 상일로10길 36, 1~2층 (상일동)",
            "latitude": "37.550948358388766",
            "longitude": "127.17409536001483"
        },
        {
            "name": "명일이마트",
            "address": "서울특별시 강동구 동남로75길 5 (명일동) 명일이마트별관주차장",
            "latitude": "37.55417877236837",
            "longitude": "127.15613409848525"
        },
        {
            "name": "상일동역",
            "address": "서울특별시 강동구 고덕로 399 (고덕동, 고덕센트럴푸르지오)",
            "latitude": "37.55756654027894",
            "longitude": "127.17076356349716"
        },
        {
            "name": "천호사거리",
            "address": "서울특별시 강동구 올림픽로 651 (천호동)",
            "latitude": "37.539702",
            "longitude": "127.123542"
        },
        {
            "name": "강일역",
            "address": "서울특별시 강동구 고덕로 429 (강일동), 1층",
            "latitude": "37.55747468801038",
            "longitude": "127.17351070838722"
        },
        {
            "name": "올림픽공원북2문",
            "address": "서울특별시 강동구 강동대로 199 (성내동)",
            "latitude": "37.5241832",
            "longitude": "127.1286775"
        },
        {
            "name": "암사역",
            "address": "서울특별시 강동구 올림픽로 786 (암사동)",
            "latitude": "37.55128201526835",
            "longitude": "127.1281050846303"
        },
        {
            "name": "이케아강동",
            "address": "서울특별시 강동구 고덕비즈밸리로 51 (고덕동)",
            "latitude": "37.5662615261099",
            "longitude": "127.157531058814"
        },
        {
            "name": "강동강일",
            "address": "서울특별시 강동구 아리수로93나길 54 (강일동)",
            "latitude": "37.57219483916046",
            "longitude": "127.17494002529294"
        },
        {
            "name": "천호대로길동",
            "address": "서울특별시 강동구 천호대로 1131 거산 유팰리스",
            "latitude": "37.534651",
            "longitude": "127.137210"
        },
        {
            "name": "천호로데오",
            "address": "서울특별시 강동구 천호대로 1037 (천호동)",
            "latitude": "37.5378069",
            "longitude": "127.12730940000006"
        },
        {
            "name": "구로디지털타워",
            "address": "서울특별시 구로구 디지털로32길 30 (구로동)",
            "latitude": "37.483472189",
            "longitude": "126.896856737"
        },
        {
            "name": "오류동역",
            "address": "서울특별시 구로구 경인로 216 (오류동)",
            "latitude": "37.4962155",
            "longitude": "126.8448614"
        },
        {
            "name": "구로디지털로",
            "address": "서울특별시 구로구 디지털로33길 11, 에이스테크노8차 1층 (구로동)",
            "latitude": "37.485699173",
            "longitude": "126.895991532"
        },
        {
            "name": "구로에이스",
            "address": "서울특별시 구로구 디지털로 285, 에이스트윈타워1차 103호 (구로동)",
            "latitude": "37.484233766",
            "longitude": "126.894560454"
        },
        {
            "name": "구로하이엔드",
            "address": "서울특별시 구로구 디지털로26길 5, 에이스하이엔드타워1차 103호 (구로동)",
            "latitude": "37.481618",
            "longitude": "126.893136"
        },
        {
            "name": "구로호텔",
            "address": "서울특별시 구로구 디지털로32길 72, 구로호텔 1층 (구로동)",
            "latitude": "37.4831293",
            "longitude": "126.89885909999998"
        },
        {
            "name": "구로고척",
            "address": "서울특별시 구로구 경인로 387 (고척동)",
            "latitude": "37.49706",
            "longitude": "126.86315"
        },
        {
            "name": "구로NC",
            "address": "서울특별시 구로구 구로중앙로 152 (구로동) 구로NC",
            "latitude": "37.501219",
            "longitude": "126.882798"
        },
        {
            "name": "구로오류DT",
            "address": "서울특별시 구로구 서해안로 2233 (오류동)",
            "latitude": "37.4881292318832",
            "longitude": "126.834491889841"
        },
        {
            "name": "구로구청",
            "address": "서울특별시 구로구 가마산로 232 (구로동, 스페스큐브), B101호",
            "latitude": "37.49395067031256",
            "longitude": "126.88676120707717"
        },
        {
            "name": "고척아이파크",
            "address": "서울특별시 구로구 경인로43길 49 (고척동, 고척아이파크), 1층 D-101호",
            "latitude": "37.49930562934076",
            "longitude": "126.8582208923581"
        },
        {
            "name": "신도림힐스테이트",
            "address": "서울특별시 구로구 경인로 625 (신도림동)",
            "latitude": "37.506860026202624",
            "longitude": "126.88463805193277"
        },
        {
            "name": "답십리역",
            "address": "서울특별시 동대문구 천호대로 263 (답십리동)",
            "latitude": "37.568466",
            "longitude": "127.051106"
        },
        {
            "name": "경희대삼거리",
            "address": "서울특별시 동대문구 회기로 141 (회기동)",
            "latitude": "37.591531",
            "longitude": "127.052017"
        },
        {
            "name": "외대정문",
            "address": "서울특별시 동대문구 이문로 93 (이문동)",
            "latitude": "37.595323163693045",
            "longitude": "127.0593372987461"
        },
        {
            "name": "신설동역",
            "address": "서울특별시 동대문구 왕산로 19 (신설동)",
            "latitude": "37.5767228",
            "longitude": "127.0255446"
        },
        {
            "name": "회기역사거리",
            "address": "서울특별시 동대문구 이문로 37 (회기동)",
            "latitude": "37.590784",
            "longitude": "127.056098"
        },
        {
            "name": "장한평역",
            "address": "서울특별시 동대문구 장한로 10 (장안동)",
            "latitude": "37.562337",
            "longitude": "127.065511"
        },
        {
            "name": "경희대",
            "address": "서울특별시 동대문구 경희대로 16-1 (회기동)",
            "latitude": "37.5928812",
            "longitude": "127.05280849999997"
        },
        {
            "name": "청량리역롯데캐슬스카이",
            "address": "서울특별시 동대문구 답십리로 27 (전농동, 청량리역 롯데캐슬 SKY-L65)",
            "latitude": "37.579249267",
            "longitude": "127.045331071"
        },
        {
            "name": "경희의료원",
            "address": "서울특별시 동대문구 경희대로 23 (회기동)",
            "latitude": "37.5935445",
            "longitude": "127.052009"
        },
        {
            "name": "경동1960",
            "address": "서울특별시 동대문구 고산자로36길 3 (제기동)",
            "latitude": "37.5796141021494",
            "longitude": "127.038684963773"
        },
        {
            "name": "사이버한국외대",
            "address": "서울특별시 동대문구 휘경로 6 (이문동)",
            "latitude": "37.5960508006499",
            "longitude": "127.060761238087"
        },
        {
            "name": "청량리역사",
            "address": "서울특별시 동대문구 왕산로 214 (전농동) 청량리역사 Connect Place6층",
            "latitude": "37.580565324",
            "longitude": "127.048564845"
        },
        {
            "name": "답십리초교사거리",
            "address": "서울특별시 동대문구 전농로 38 (답십리동)",
            "latitude": "37.5682540295405",
            "longitude": "127.057240883237"
        },
        {
            "name": "장안사거리",
            "address": "서울특별시 동대문구 답십리로 267 (장안동)",
            "latitude": "37.5727209002351",
            "longitude": "127.070092668638"
        },
        {
            "name": "서울숲역",
            "address": "서울특별시 성동구 왕십리로 50 (성수동1가) 1층",
            "latitude": "37.541868967552624",
            "longitude": "127.04489904228212"
        },
        {
            "name": "금호역",
            "address": "서울특별시 성동구 동호로 99 (금호동4가)",
            "latitude": "37.54795819607987",
            "longitude": "127.01576347145759"
        },
        {
            "name": "뚝섬역",
            "address": "서울특별시 성동구 아차산로 42 (성수동1가)",
            "latitude": "37.546432",
            "longitude": "127.049042"
        },
        {
            "name": "황학사거리",
            "address": "서울특별시 성동구 왕십리로 410 (하왕십리동, 센트라스)",
            "latitude": "37.567598",
            "longitude": "127.023713"
        },
        {
            "name": "성수역",
            "address": "서울특별시 성동구 성수이로 94 (성수동2가)",
            "latitude": "37.543193",
            "longitude": "127.056943"
        },
        {
            "name": "상왕십리역",
            "address": "서울특별시 성동구 왕십리로 382 (하왕십리동)",
            "latitude": "37.565",
            "longitude": "127.0279"
        },
        {
            "name": "왕십리역",
            "address": "서울특별시 성동구 왕십리로 326 (도선동)",
            "latitude": "37.5627541",
            "longitude": "127.0339072"
        },
        {
            "name": "한양대",
            "address": "서울특별시 성동구 왕십리로 225 (행당동) 1,2층",
            "latitude": "37.55726984",
            "longitude": "127.0421649"
        },
        {
            "name": "엔터식스",
            "address": "서울특별시 성동구 왕십리광장로 17 (행당동)",
            "latitude": "37.5622",
            "longitude": "127.0381"
        },
        {
            "name": "신금호역",
            "address": "서울특별시 성동구 금호로 158-1 (금호동1가) 1~5층 전체",
            "latitude": "37.55495378704588",
            "longitude": "127.02011077314176"
        },
        {
            "name": "뚝섬역교차로",
            "address": "서울특별시 성동구 아차산로 6 (성수동1가)",
            "latitude": "37.547754922352",
            "longitude": "127.045142362137"
        },
        {
            "name": "왕십리역9번출구",
            "address": "서울특별시 성동구 고산자로 234 (행당동)",
            "latitude": "37.5605427226347",
            "longitude": "127.035267332652"
        },
        {
            "name": "성수",
            "address": "서울특별시 성동구 아차산로 104 (성수동2가)",
            "latitude": "37.5444620830457",
            "longitude": "127.055413311106"
        },
        {
            "name": "옥수",
            "address": "서울특별시 성동구 독서당로 202 (옥수동)",
            "latitude": "37.5430298",
            "longitude": "127.0133661"
        },
        {
            "name": "성수낙낙",
            "address": "서울특별시 성동구 광나루로8길 31 (성수동2가) 성수낙낙 1층 101~107호",
            "latitude": "37.547326",
            "longitude": "127.066367"
        },
        {
            "name": "효창공원앞역",
            "address": "서울특별시 용산구 백범로 313 (효창동, 용산 롯데캐슬 센터포레)",
            "latitude": "37.53897052967548",
            "longitude": "126.96313623522258"
        },
        {
            "name": "서울역서부",
            "address": "서울특별시 용산구 만리재로 202 (서계동)",
            "latitude": "37.555165",
            "longitude": "126.968446"
        },
        {
            "name": "이태원역",
            "address": "서울특별시 용산구 이태원로 188 (이태원동)",
            "latitude": "37.534273",
            "longitude": "126.994789"
        },
        {
            "name": "한강진역R",
            "address": "서울특별시 용산구 이태원로 252 (한남동)",
            "latitude": "37.53716526852496",
            "longitude": "127.00101265422607"
        },
        {
            "name": "용산역써밋R",
            "address": "서울특별시 용산구 한강대로 69 (한강로2가, 용산푸르지오써밋)",
            "latitude": "37.527586",
            "longitude": "126.965401"
        },
        {
            "name": "이촌",
            "address": "서울특별시 용산구 이촌로 276 (이촌동)",
            "latitude": "37.518605",
            "longitude": "126.977271"
        },
        {
            "name": "신용산역",
            "address": "서울특별시 용산구 한강대로 95 (한강로2가, 래미안용산)",
            "latitude": "37.528702",
            "longitude": "126.966757"
        },
        {
            "name": "용산파크타워",
            "address": "서울특별시 용산구 서빙고로 67 (용산동5가, 파크타워)",
            "latitude": "37.523818",
            "longitude": "126.970389"
        },
        {
            "name": "남영동",
            "address": "서울특별시 용산구 한강대로 275 (갈월동)",
            "latitude": "37.542831",
            "longitude": "126.972242"
        },
        {
            "name": "한남동R",
            "address": "서울특별시 용산구 독서당로 94 (한남동)",
            "latitude": "37.53485",
            "longitude": "127.010919"
        },
        {
            "name": "서울타워",
            "address": "서울특별시 용산구 남산공원길 105 (용산동2가) YTN서울타워 1층",
            "latitude": "37.551102",
            "longitude": "126.988317"
        },
        {
            "name": "서울역동자동",
            "address": "서울특별시 용산구 한강대로 372 (동자동)",
            "latitude": "37.551752",
            "longitude": "126.972694"
        },
        {
            "name": "순천향입구",
            "address": "서울특별시 용산구 대사관로 67 (한남동)",
            "latitude": "37.533394",
            "longitude": "127.00563"
        },
        {
            "name": "동빙고",
            "address": "서울특별시 용산구 장문로 12 (동빙고동)",
            "latitude": "37.5290045288412",
            "longitude": "126.991762757458"
        },
        {
            "name": "숙대입구역",
            "address": "서울특별시 용산구 한강대로 291 (갈월동)",
            "latitude": "37.544225782",
            "longitude": "126.971957017"
        },
        {
            "name": "용산아이파크몰6F",
            "address": "서울특별시 용산구 한강대로23길 55",
            "latitude": "37.5295804832797",
            "longitude": "126.964026132479"
        },
        {
            "name": "동부이촌동",
            "address": "서울특별시 용산구 이촌로 198 (이촌동)",
            "latitude": "37.52111",
            "longitude": "126.96905"
        },
        {
            "name": "숙명여대정문",
            "address": "서울특별시 용산구 청파로47길 100 (청파동2가) 프라임관B1F(로비층)",
            "latitude": "37.54474797",
            "longitude": "126.96484196"
        },
        {
            "name": "용산해링턴스퀘어",
            "address": "서울특별시 용산구 서빙고로 17 (한강로3가)",
            "latitude": "37.5265379583476",
            "longitude": "126.967362090447"
        },
        {
            "name": "경리단길",
            "address": "서울특별시 용산구 회나무로 3 (이태원동)",
            "latitude": "37.53854",
            "longitude": "126.98737"
        },
        {
            "name": "서울역사",
            "address": "서울특별시 용산구 한강대로 405 (동자동) 신-101호",
            "latitude": "37.55415699928705",
            "longitude": "126.97179361292846"
        },
        {
            "name": "용산리첸시아",
            "address": "서울특별시 용산구 백범로 341 (원효로1가, 리첸시아 용산)",
            "latitude": "37.538571",
            "longitude": "126.967409"
        },
        {
            "name": "용산전자랜드",
            "address": "서울특별시 용산구 청파로 74 (한강로3가)",
            "latitude": "37.53286105987034",
            "longitude": "126.96100091132484"
        },
        {
            "name": "용산이마트",
            "address": "서울특별시 용산구 한강대로23길 55 (한강로3가) 용산이마트 지하 2층",
            "latitude": "37.52970001276223",
            "longitude": "126.96573157676766"
        },
        {
            "name": "용산아이파크몰1F",
            "address": "서울특별시 용산구 한강대로23길 55 1층 (한강로3가)",
            "latitude": "37.52872656009729",
            "longitude": "126.96447624612843"
        },
        {
            "name": "상봉",
            "address": "서울특별시 중랑구 상봉로 131 (상봉동, 상봉 듀오트리스 주상복합)",
            "latitude": "37.597842",
            "longitude": "127.092509"
        },
        {
            "name": "중랑역",
            "address": "서울특별시 중랑구 망우로30길 3 (상봉동)",
            "latitude": "37.5930326",
            "longitude": "127.07473579999998"
        },
        {
            "name": "중랑구청",
            "address": "서울특별시 중랑구 신내로 72",
            "latitude": "37.60538908",
            "longitude": "127.0957558"
        },
        {
            "name": "사가정역",
            "address": "서울특별시 중랑구 면목로 310",
            "latitude": "37.579594",
            "longitude": "127.087966"
        },
        {
            "name": "상봉역",
            "address": "서울특별시 중랑구 망우로 307 (상봉동)",
            "latitude": "37.59689",
            "longitude": "127.08647"
        },
        {
            "name": "묵동",
            "address": "서울특별시 중랑구 동일로 952 (묵동, 로프트원 태릉입구역) 1층",
            "latitude": "37.615368",
            "longitude": "127.076633"
        },
        {
            "name": "망우동",
            "address": "서울특별시 중랑구 망우로 407 (망우동)",
            "latitude": "37.5995083771241",
            "longitude": "127.097538751682"
        },
        {
            "name": "양원역",
            "address": "서울특별시 중랑구 양원역로10길 3 (망우동)",
            "latitude": "37.6066536267232",
            "longitude": "127.106359790053"
        },
        {
            "name": "중화역",
            "address": "서울특별시 중랑구 봉화산로 35 1층",
            "latitude": "37.60170912407773",
            "longitude": "127.07841136432036"
        }
    ]
}