{
    "location": "광주",
    "count": 67,
    "date": "2025-07-09",
    "item": [
        {
            "name": "광주운남DT",
            "address": "광주광역시 광산구 임방울대로 156 (운남동)",
            "latitude": "35.175136",
            "longitude": "126.818062"
        },
        {
            "name": "광주선운DT",
            "address": "광주광역시 광산구 선운로 20번길 63",
            "latitude": "35.1468918132751",
            "longitude": "126.777527653198"
        },
        {
            "name": "광주산정DT",
            "address": "광주광역시 광산구 용아로 342 (산정동)",
            "latitude": "35.173524",
            "longitude": "126.804191"
        },
        {
            "name": "광주흑석DT",
            "address": "광주광역시 광산구 사암로 367 (산정동)",
            "latitude": "35.1769635314888",
            "longitude": "126.807928873416"
        },
        {
            "name": "광주송정역",
            "address": "광주광역시 광산구 상무대로205번길 6 (송정동)",
            "latitude": "35.1380713043052",
            "longitude": "126.791425499249"
        },
        {
            "name": "광주수완DT",
            "address": "광주광역시 광산구 임방울대로 487 (수완동)",
            "latitude": "35.2030951514752",
            "longitude": "126.819068502713"
        },
        {
            "name": "광주신가DT",
            "address": "광주광역시 광산구 목련로 335 (신가동)",
            "latitude": "35.1790467",
            "longitude": "126.8301259"
        },
        {
            "name": "광주쌍암",
            "address": "광주광역시 광산구 첨단중앙로 158 (쌍암동)",
            "latitude": "35.2193113953075",
            "longitude": "126.842304220026"
        },
        {
            "name": "광주장덕",
            "address": "광주광역시 광산구 장신로 85 (장덕동)",
            "latitude": "35.191066862312",
            "longitude": "126.819243400822"
        },
        {
            "name": "광주하남",
            "address": "광주광역시 광산구 사암로216번길 38-16, 1~2층 (우산동)",
            "latitude": "35.1625996806446",
            "longitude": "126.81032250012"
        },
        {
            "name": "광주첨단",
            "address": "광주광역시 광산구 첨단중앙로 104 (월계동)",
            "latitude": "35.2147182718094",
            "longitude": "126.843466326152"
        },
        {
            "name": "광산수완",
            "address": "광주광역시 광산구 장신로 134, 1~2층 (수완동)",
            "latitude": "35.1905205771604",
            "longitude": "126.8247180482"
        },
        {
            "name": "광주신창강변DT",
            "address": "광주광역시 광산구 북문대로 321 (신창동)",
            "latitude": "35.188844789779",
            "longitude": "126.857649994301"
        },
        {
            "name": "광주첨단DT",
            "address": "광주광역시 광산구 첨단월봉로 84 (산월동)",
            "latitude": "35.2062384857051",
            "longitude": "126.847734037212"
        },
        {
            "name": "광주비아DT",
            "address": "광주광역시 광산구 첨단과기로 81 (비아동)",
            "latitude": "35.2232057",
            "longitude": "126.8348789"
        },
        {
            "name": "광주송정로",
            "address": "광주광역시 광산구 상무대로 202 (송정동)",
            "latitude": "35.13714620828514",
            "longitude": "126.79167046372748"
        },
        {
            "name": "광주시리단길",
            "address": "광주광역시 광산구 임방울대로826번길 29-12 (쌍암동) 101호, 102호, 103호, 104호",
            "latitude": "35.216064750383524",
            "longitude": "126.84975989378465"
        },
        {
            "name": "광주월산DT",
            "address": "광주광역시 남구 대남대로 386 (월산동)",
            "latitude": "35.14561145257798",
            "longitude": "126.89083817211923"
        },
        {
            "name": "광주주월DT",
            "address": "광주광역시 남구 회재로 1256 (주월동)",
            "latitude": "35.134253849378254",
            "longitude": "126.89809502958025"
        },
        {
            "name": "광주효천DT",
            "address": "광주광역시 남구 임암길 232 (임암동)",
            "latitude": "35.099967465919526",
            "longitude": "126.87130256725226"
        },
        {
            "name": "광주봉선로",
            "address": "광주광역시 남구 제석로 104 (봉선동)",
            "latitude": "35.12422731162313",
            "longitude": "126.90796215110494"
        },
        {
            "name": "광주서문대로",
            "address": "광주광역시 남구 서문대로 665 (진월동)",
            "latitude": "35.119448",
            "longitude": "126.898595"
        },
        {
            "name": "광주방림DT",
            "address": "광주광역시 남구 대남대로 67 (방림동)",
            "latitude": "35.13501455676516",
            "longitude": "126.9175974703926"
        },
        {
            "name": "광주봉선중앙",
            "address": "광주광역시 남구 봉선중앙로 51 (봉선동)",
            "latitude": "35.12552096573952",
            "longitude": "126.91124653946988"
        },
        {
            "name": "광주진월",
            "address": "광주광역시 남구 서문대로 745 (주월동)",
            "latitude": "35.12572422634623",
            "longitude": "126.89753789944244"
        },
        {
            "name": "광주봉선",
            "address": "광주광역시 남구 봉선로 176, 1층 101,111호 (봉선동)",
            "latitude": "35.12300369505621",
            "longitude": "126.91408246890394"
        },
        {
            "name": "봉선이마트",
            "address": "광주광역시 남구 봉선로 198 (봉선동)",
            "latitude": "35.1224129503302",
            "longitude": "126.916025777436"
        },
        {
            "name": "광주지산DT",
            "address": "광주광역시 동구 필문대로 240 (동명동)",
            "latitude": "35.149728",
            "longitude": "126.929070"
        },
        {
            "name": "광주동명",
            "address": "광주광역시 동구 동명로 16 (동명동)",
            "latitude": "35.150362",
            "longitude": "126.9236181"
        },
        {
            "name": "광주지원DT",
            "address": "광주광역시 동구 남문로 529 (용산동)",
            "latitude": "35.1185225125972",
            "longitude": "126.9333452904421"
        },
        {
            "name": "광주지산유원지입구",
            "address": "광주광역시 동구 무등로 592 (산수동)",
            "latitude": "35.154459",
            "longitude": "126.940912"
        },
        {
            "name": "광주황금",
            "address": "광주광역시 동구 중앙로160번길 14 (황금동)",
            "latitude": "35.1473572",
            "longitude": "126.9145683"
        },
        {
            "name": "충장서림",
            "address": "광주광역시 동구 충장로 93-5 (금남로2가, 무등맨션)",
            "latitude": "35.14808817",
            "longitude": "126.9173077"
        },
        {
            "name": "충장일가",
            "address": "광주광역시 동구 서석로 43 (충장로1가)",
            "latitude": "35.146797",
            "longitude": "126.918252"
        },
        {
            "name": "조선대국제관",
            "address": "광주광역시 동구 조선대5길 9 (서석동)",
            "latitude": "35.14268276554809",
            "longitude": "126.93189905789138"
        },
        {
            "name": "광주충장DT",
            "address": "광주광역시 동구 천변우로 421 (불로동)",
            "latitude": "35.144342",
            "longitude": "126.9149709"
        },
        {
            "name": "광주오치",
            "address": "광주광역시 북구 설죽로 314 (오치동)",
            "latitude": "35.187452736868266",
            "longitude": "126.89890250470112"
        },
        {
            "name": "광주연제DT",
            "address": "광주광역시 북구 양일로18번길 2 (연제동)",
            "latitude": "35.197688",
            "longitude": "126.866803"
        },
        {
            "name": "광주신안DT",
            "address": "광주광역시 북구 서암대로 93 (신안동)",
            "latitude": "35.171678",
            "longitude": "126.894998"
        },
        {
            "name": "광주매곡DT",
            "address": "광주광역시 북구 설죽로 339 (매곡동)",
            "latitude": "35.189836",
            "longitude": "126.898698"
        },
        {
            "name": "광주두암타운",
            "address": "광주광역시 북구 삼정로 4 (두암동)",
            "latitude": "35.162112",
            "longitude": "126.937388"
        },
        {
            "name": "광주일곡",
            "address": "광주광역시 북구 설죽로 518 (일곡동)",
            "latitude": "35.205463",
            "longitude": "126.898114"
        },
        {
            "name": "광주북구청",
            "address": "광주광역시 북구 서방로9번길 30 (중흥동)",
            "latitude": "35.17483",
            "longitude": "126.914469"
        },
        {
            "name": "광주첨단신용",
            "address": "광주광역시 북구 첨단연신로 101 (신용동)",
            "latitude": "35.20701",
            "longitude": "126.864115"
        },
        {
            "name": "광주용두DT",
            "address": "광주광역시 북구 임방울대로 1016 (신용동)",
            "latitude": "35.212837",
            "longitude": "126.868485"
        },
        {
            "name": "전남대",
            "address": "광주광역시 북구 우치로 110, 1,2,3층 (용봉동)",
            "latitude": "35.17719867",
            "longitude": "126.9124787"
        },
        {
            "name": "광주용봉",
            "address": "광주광역시 북구 저불로 45 (용봉동)",
            "latitude": "35.178664",
            "longitude": "126.895196"
        },
        {
            "name": "광주각화DT",
            "address": "광주광역시 북구 동문대로 303 (문흥동)",
            "latitude": "35.1886443441194",
            "longitude": "126.93359912845"
        },
        {
            "name": "동광주DT",
            "address": "광주광역시 북구 동문대로 148 (두암동)",
            "latitude": "35.175874",
            "longitude": "126.927584"
        },
        {
            "name": "광주양산DT",
            "address": "광주광역시 북구 하서로 380 (양산동)",
            "latitude": "35.208888",
            "longitude": "126.87419"
        },
        {
            "name": "광주신세계DT",
            "address": "광주광역시 서구 죽봉대로 33 (화정동)",
            "latitude": "35.156282894754526",
            "longitude": "126.8828860890317"
        },
        {
            "name": "광주상무DT",
            "address": "광주광역시 서구 상무대로 847 (쌍촌동)",
            "latitude": "35.14993173",
            "longitude": "126.85482276"
        },
        {
            "name": "광주화정DT",
            "address": "광주광역시 서구 상무대로 1080",
            "latitude": "35.15231182042463",
            "longitude": "126.87998623054321"
        },
        {
            "name": "광주상무중앙로",
            "address": "광주광역시 서구 상무중앙로 46 (치평동) 1층",
            "latitude": "35.151021",
            "longitude": "126.848815"
        },
        {
            "name": "광주상무시민로",
            "address": "광주광역시 서구 운천로 253 (치평동) 103호",
            "latitude": "35.15505080404853",
            "longitude": "126.85427863014205"
        },
        {
            "name": "광주풍암",
            "address": "광주광역시 서구 풍암2로 8 (풍암동) 한아름빌딩",
            "latitude": "35.1268447",
            "longitude": "126.8796486"
        },
        {
            "name": "광주금호DT",
            "address": "광주광역시 서구 운천로109번길 1 (쌍촌동)",
            "latitude": "35.1421126",
            "longitude": "126.85766460000002"
        },
        {
            "name": "광주상무대교",
            "address": "광주광역시 서구 상무중앙로 90, 눈높이상무센터 1층 (치평동)",
            "latitude": "35.1551",
            "longitude": "126.848788"
        },
        {
            "name": "광주동림",
            "address": "광주광역시 서구 하남대로 672-1, 1층 (동천동)",
            "latitude": "35.171734",
            "longitude": "126.86618"
        },
        {
            "name": "상무치평",
            "address": "광주광역시 서구 상무자유로 173, 1층 (치평동)",
            "latitude": "35.151968",
            "longitude": "126.853423"
        },
        {
            "name": "상무역",
            "address": "광주광역시 서구 상무중앙로 7, 1층 (치평동)",
            "latitude": "35.1475664524442",
            "longitude": "126.84811358436447"
        },
        {
            "name": "신세계광주신관B1",
            "address": "광주광역시 서구 죽봉대로 61, 패션스트리트 B01호 (화정동)",
            "latitude": "35.158806",
            "longitude": "126.882069"
        },
        {
            "name": "광주시청",
            "address": "광주광역시 서구 상무연하로 112 (치평동), 제갈량빌딩, B동 102호",
            "latitude": "35.15862749430153",
            "longitude": "126.8510234942622"
        },
        {
            "name": "광주풍암호수공원",
            "address": "광주광역시 서구 회재로 970 (풍암동)",
            "latitude": "35.1252752078873",
            "longitude": "126.869198235695"
        },
        {
            "name": "서광주DT",
            "address": "광주광역시 서구 서광주로 23 (매월동)",
            "latitude": "35.129468",
            "longitude": "126.847401"
        },
        {
            "name": "광주염주",
            "address": "광주광역시 서구 월드컵4강로 56 (화정동)",
            "latitude": "35.142071401469",
            "longitude": "126.875287018219"
        },
        {
            "name": "광주광천",
            "address": "광주광역시 서구 죽봉대로 66 (농성동)",
            "latitude": "35.159037105",
            "longitude": "126.883463848"
        }
    ]
}