{
    "location": "충남",
    "count": 54,
    "date": "2025-07-09",
    "item": [
        {
            "name": "공주동학사DT",
            "address": "충청남도 공주시 반포면 동학사1로 114",
            "latitude": "36.3633600",
            "longitude": "127.2535628"
        },
        {
            "name": "공주신관",
            "address": "충청남도 공주시 번영1로 113 (신관동)",
            "latitude": "36.474648",
            "longitude": "127.14003"
        },
        {
            "name": "공주DT",
            "address": "충청남도 공주시 무령로 467 (신관동)",
            "latitude": "36.46815",
            "longitude": "127.14274"
        },
        {
            "name": "논산중앙",
            "address": "충청남도 논산시 중앙로398번길 13-10",
            "latitude": "36.2012496",
            "longitude": "127.0899058"
        },
        {
            "name": "논산내동DT",
            "address": "충청남도 논산시 시민로 165 (내동)",
            "latitude": "36.18212516106516",
            "longitude": "127.09979330829168"
        },
        {
            "name": "충남보령DT",
            "address": "충청남도 보령시 대해로 101 (궁촌동)",
            "latitude": "36.3410893656562",
            "longitude": "126.58923266078462"
        },
        {
            "name": "대천해수욕장",
            "address": "충청남도 보령시 머드로 114 (신흑동)",
            "latitude": "36.3149238801881",
            "longitude": "126.512086809748"
        },
        {
            "name": "충남부여DT",
            "address": "충청남도 부여군 부여읍 성왕로 317",
            "latitude": "36.28406475304308",
            "longitude": "126.922191567416"
        },
        {
            "name": "서산예천DT",
            "address": "충청남도 서산시 나무장1길 22 (예천동)",
            "latitude": "36.771727",
            "longitude": "126.440171"
        },
        {
            "name": "서산호수",
            "address": "충청남도 서산시 호수공원2로 33, 1~2층 (읍내동)",
            "latitude": "36.776653",
            "longitude": "126.448646"
        },
        {
            "name": "서산석남DT",
            "address": "충청남도 서산시 남부순환로 994 (석남동)",
            "latitude": "36.7648477270285",
            "longitude": "126.453133876978"
        },
        {
            "name": "천안신부",
            "address": "충청남도 천안시 동남구 만남로 43 (신부동) 아라리오갤러리",
            "latitude": "36.819309",
            "longitude": "127.157715"
        },
        {
            "name": "천안청당",
            "address": "충청남도 천안시 동남구 청수14로 102 (청당동)",
            "latitude": "36.78575221007555",
            "longitude": "127.15755512623332"
        },
        {
            "name": "천안안서",
            "address": "충청남도 천안시 동남구 안서3길 3 (안서동)",
            "latitude": "36.830087",
            "longitude": "127.179779"
        },
        {
            "name": "천안IC DT",
            "address": "충청남도 천안시 동남구 신부15길 3 (신부동)",
            "latitude": "36.82025",
            "longitude": "127.1615"
        },
        {
            "name": "천안원성DT",
            "address": "충청남도 천안시 동남구 충절로 168 (원성동)",
            "latitude": "36.8040108191267",
            "longitude": "127.158508258844"
        },
        {
            "name": "천안남부대로DT",
            "address": "충청남도 천안시 동남구 남부대로 88 (신방동)",
            "latitude": "36.7858511249574",
            "longitude": "127.127241894349"
        },
        {
            "name": "신세계천안아산",
            "address": "충청남도 천안시 동남구 만남로 43 (신부동) B관 4층",
            "latitude": "36.8202884863708",
            "longitude": "127.156933115308"
        },
        {
            "name": "천안청당신도시",
            "address": "충청남도 천안시 동남구 남부대로 322 1동 1층",
            "latitude": "36.78137667727904",
            "longitude": "127.1528523307913"
        },
        {
            "name": "천안대로DT",
            "address": "충청남도 천안시 동남구 천안대로 527 (구성동)",
            "latitude": "36.795121",
            "longitude": "127.164257"
        },
        {
            "name": "순천향천안병원",
            "address": "충청남도 천안시 동남구 순천향6길 31 (봉명동)",
            "latitude": "36.80352609596671",
            "longitude": "127.13611299380876"
        },
        {
            "name": "천안서북이마트",
            "address": "충청남도 천안시 서북구 삼성대로 20 (백석동)",
            "latitude": "36.838876",
            "longitude": "127.122399"
        },
        {
            "name": "천안백석",
            "address": "충청남도 천안시 서북구 백석로 85-4 (백석동)",
            "latitude": "36.823793",
            "longitude": "127.121751"
        },
        {
            "name": "천안불당DT",
            "address": "충청남도 천안시 서북구 불당34길 4 (불당동)",
            "latitude": "36.805399",
            "longitude": "127.106090"
        },
        {
            "name": "천안서부대로DT",
            "address": "충청남도 천안시 서북구 서부대로 405 (쌍용동)",
            "latitude": "36.8036802750752",
            "longitude": "127.126989561306"
        },
        {
            "name": "천안두정역DT",
            "address": "충청남도 천안시 서북구 두정로 264 (두정동)",
            "latitude": "36.83287887809728",
            "longitude": "127.14631562178056"
        },
        {
            "name": "천안시청",
            "address": "충청남도 천안시 서북구 불당22대로 67 (불당동)",
            "latitude": "36.8165367",
            "longitude": "127.1065647"
        },
        {
            "name": "천안쌍용역",
            "address": "충청남도 천안시 서북구 충무로 133 (쌍용동)",
            "latitude": "36.793123",
            "longitude": "127.12223"
        },
        {
            "name": "천안신불당",
            "address": "충청남도 천안시 서북구 불당33길 24 (불당동)",
            "latitude": "36.812323",
            "longitude": "127.108287"
        },
        {
            "name": "천안성정DT",
            "address": "충청남도 천안시 서북구 동서대로 154 (성정동)",
            "latitude": "36.8253941",
            "longitude": "127.1403512"
        },
        {
            "name": "천안불당",
            "address": "충청남도 천안시 서북구 불당4로 91 (불당동)",
            "latitude": "36.8100104",
            "longitude": "127.1109606"
        },
        {
            "name": "천안두정",
            "address": "충청남도 천안시 서북구 부성4길 3 (부성1동)",
            "latitude": "36.833981",
            "longitude": "127.134838"
        },
        {
            "name": "천안이마트",
            "address": "충청남도 천안시 서북구 충무로 187 (쌍용동) 천안이마트 1층",
            "latitude": "36.7960306252471",
            "longitude": "127.127259625375"
        },
        {
            "name": "천안불당신도시",
            "address": "충청남도 천안시 서북구 불당23로 73-27 (불당동)",
            "latitude": "36.8204222189689",
            "longitude": "127.109657887614"
        },
        {
            "name": "천안업성레이크",
            "address": "충청남도 천안시 서북구 업성수변로 69 (성성동)",
            "latitude": "36.8455354220818",
            "longitude": "127.138131101768"
        },
        {
            "name": "갤러리아센터시티",
            "address": "충청남도 천안시 서북구 공원로 227 (불당동), 갤러리아 센터시티, 8F",
            "latitude": "36.800458713014",
            "longitude": "127.104689019518"
        },
        {
            "name": "천안불당호반",
            "address": "충청남도 천안시 서북구 불당34길 3-7 (불당동)",
            "latitude": "36.8056802061729",
            "longitude": "127.104995440008"
        },
        {
            "name": "천안번영로DT",
            "address": "충청남도 천안시 서북구 번영로 579-1 (성성동)",
            "latitude": "36.8509254572672",
            "longitude": "127.124606939786"
        },
        {
            "name": "충남홍성DT",
            "address": "충청남도 홍성군 홍성읍 도청대로 58",
            "latitude": "36.6096236304524",
            "longitude": "126.663574710406"
        },
        {
            "name": "충남도청",
            "address": "충청남도 홍성군 홍북읍 청사로150번길 24",
            "latitude": "36.657045070878375",
            "longitude": "126.68143935135514"
        },
        {
            "name": "계룡대로DT",
            "address": "충청남도 계룡시 엄사면 번영로 6",
            "latitude": "36.2884647496453",
            "longitude": "127.244408188595"
        },
        {
            "name": "계룡대실DT",
            "address": "충청남도 계룡시 계룡대로 239 (금암동)",
            "latitude": "36.2682650244775",
            "longitude": "127.259600142048"
        },
        {
            "name": "당진시곡DT",
            "address": "충청남도 당진시 서해로 6283 (시곡동)",
            "latitude": "36.90266947331966",
            "longitude": "126.68371713610068"
        },
        {
            "name": "당진문예의전당",
            "address": "충청남도 당진시 시청1로 78 (읍내동) 1층",
            "latitude": "36.8912121836197",
            "longitude": "126.639048285471"
        },
        {
            "name": "당진시청",
            "address": "충청남도 당진시 시청2로 49-30 (수청동)  102,103,104,105호",
            "latitude": "36.8880041580427",
            "longitude": "126.647165580892"
        },
        {
            "name": "아산방축DT",
            "address": "충청남도 아산시 온천대로 1392 (방축동)",
            "latitude": "36.7836506672431",
            "longitude": "126.992699345261"
        },
        {
            "name": "아산배방",
            "address": "충청남도 아산시 배방읍 배방로 22",
            "latitude": "36.7748465804454",
            "longitude": "127.053905618351"
        },
        {
            "name": "아산탕정",
            "address": "충청남도 아산시 탕정면 탕정면로 10",
            "latitude": "36.798663",
            "longitude": "127.058333"
        },
        {
            "name": "아산용화",
            "address": "충청남도 아산시 어의정로 117 (용화동)",
            "latitude": "36.774397",
            "longitude": "127.008545"
        },
        {
            "name": "아산권곡",
            "address": "충청남도 아산시 문화로 271-6 (권곡동) 101~105호",
            "latitude": "36.788475472035394",
            "longitude": "127.01595381798682"
        },
        {
            "name": "아산탕정역",
            "address": "충청남도 아산시 탕정면 한들물빛도시로 88 거산타워 104,105,106,107,111호",
            "latitude": "36.787035538908",
            "longitude": "127.083770645339"
        },
        {
            "name": "아산탕정DT",
            "address": "충청남도 아산시 탕정면 이순신대로 604",
            "latitude": "36.7922433793223",
            "longitude": "127.069604959597"
        },
        {
            "name": "아산모종",
            "address": "충청남도 아산시 온천대로 1721 (모종동) 아산축산농협 1층",
            "latitude": "36.7763001572423",
            "longitude": "127.028425229056"
        },
        {
            "name": "천안아산역",
            "address": "충청남도 아산시 배방읍 고속철대로 147 101~105호",
            "latitude": "36.797449669566",
            "longitude": "127.105762380403"
        }
    ]
}