{
    "location": "인천",
    "count": 82,
    "date": "2025-07-09",
    "item": [
        {
            "name": "인천강화DT",
            "address": "인천광역시 강화군 강화읍 강화대로 343",
            "latitude": "37.7426",
            "longitude": "126.4916"
        },
        {
            "name": "경인교대입구역DT",
            "address": "인천광역시 계양구 계양대로 131 (작전동)",
            "latitude": "37.53554797027134",
            "longitude": "126.72225333064953"
        },
        {
            "name": "인천계양",
            "address": "인천광역시 계양구 장제로 808 (계산동)",
            "latitude": "37.539859388510486",
            "longitude": "126.73506000187058"
        },
        {
            "name": "인천작전",
            "address": "인천광역시 계양구 계양대로 37, 1층 (작전동)",
            "latitude": "37.52711647724326",
            "longitude": "126.72208378858448"
        },
        {
            "name": "인천계산역DT",
            "address": "인천광역시 계양구 경명대로 1105 (계산동)",
            "latitude": "37.543618257713824",
            "longitude": "126.72985005007184"
        },
        {
            "name": "계양BMW",
            "address": "인천광역시 계양구 서운산단로2길 6 (서운동) BMW 바바리안모터스",
            "latitude": "37.5322648",
            "longitude": "126.7564676"
        },
        {
            "name": "계양구청",
            "address": "인천광역시 계양구 오조산로 85 (용종동)",
            "latitude": "37.538786204963344",
            "longitude": "126.7386562436693"
        },
        {
            "name": "인천학익DT",
            "address": "인천광역시 미추홀구 매소홀로 368 (학익동)",
            "latitude": "37.44046613341327",
            "longitude": "126.66296680683121"
        },
        {
            "name": "인천용현DT",
            "address": "인천광역시 미추홀구 아암대로 107 (용현동)",
            "latitude": "37.4523373",
            "longitude": "126.6325809"
        },
        {
            "name": "주안역",
            "address": "인천광역시 미추홀구 주안로 100 (주안동) 1층,2층",
            "latitude": "37.46386743799924",
            "longitude": "126.68075518314572"
        },
        {
            "name": "인하대",
            "address": "인천광역시 미추홀구 인하로 59 (용현동)",
            "latitude": "37.451827",
            "longitude": "126.654969"
        },
        {
            "name": "시민공원역",
            "address": "인천광역시 미추홀구 경인로 372 (주안동, 포레나 미추홀)",
            "latitude": "37.45813976248927",
            "longitude": "126.68093494384136"
        },
        {
            "name": "인천관교DT",
            "address": "인천광역시 미추홀구 경원대로 656 (관교동)",
            "latitude": "37.4418005811163",
            "longitude": "126.6930841977393"
        },
        {
            "name": "제물포역DT",
            "address": "인천광역시 미추홀구 경인로 103 (숭의동)",
            "latitude": "37.466522",
            "longitude": "126.654075"
        },
        {
            "name": "인천주안DT",
            "address": "인천광역시 미추홀구 인주대로 443 (주안동)",
            "latitude": "37.4513564",
            "longitude": "126.6858992"
        },
        {
            "name": "인천도화DT",
            "address": "인천광역시 미추홀구 장고개로 28 (도화동)",
            "latitude": "37.47054651819746",
            "longitude": "126.66701162526885"
        },
        {
            "name": "인하대역",
            "address": "인천광역시 미추홀구 독배로 309 (용현동)",
            "latitude": "37.44768876601584",
            "longitude": "126.64938447335034"
        },
        {
            "name": "SSG랜더스필드2F",
            "address": "인천광역시 미추홀구 매소홀로 618 (문학동)",
            "latitude": "37.436624",
            "longitude": "126.692362"
        },
        {
            "name": "SSG랜더스필드1F",
            "address": "인천광역시 미추홀구 매소홀로 618 (문학동)",
            "latitude": "37.43703514338438",
            "longitude": "126.69256976085872"
        },
        {
            "name": "인천용일사거리DT",
            "address": "인천광역시 미추홀구 한나루로 525 (주안동)",
            "latitude": "37.4536849988819",
            "longitude": "126.668272868558"
        },
        {
            "name": "송림트레이더스",
            "address": "인천광역시 동구 봉수대로 82, 이마트 트레이더스송림점1층 (송림동)",
            "latitude": "37.48302527840734",
            "longitude": "126.65983607738293"
        },
        {
            "name": "인천갈산DT",
            "address": "인천광역시 부평구 장제로 371 (갈산동)",
            "latitude": "37.5189106",
            "longitude": "126.7321159"
        },
        {
            "name": "인천삼산",
            "address": "인천광역시 부평구 길주로 643 (삼산동)",
            "latitude": "37.50721456288332",
            "longitude": "126.734349785017"
        },
        {
            "name": "부평사거리",
            "address": "인천광역시 부평구 부평문화로 52, 1~2층 (부평동)",
            "latitude": "37.49382886524158",
            "longitude": "126.72204038789104"
        },
        {
            "name": "부평시장역",
            "address": "인천광역시 부평구 부평대로 60, 현대해상화재보험 1층 (부평동)",
            "latitude": "37.496997746715515",
            "longitude": "126.72282871762134"
        },
        {
            "name": "부평",
            "address": "인천광역시 부평구 경원대로 1397 (부평동)",
            "latitude": "37.491618187410445",
            "longitude": "126.7245136509578"
        },
        {
            "name": "부평역",
            "address": "인천광역시 부평구 경원대로 1377, 1-4층 (부평동)",
            "latitude": "37.49151122434563",
            "longitude": "126.72212247632325"
        },
        {
            "name": "인천테크노밸리",
            "address": "인천광역시 부평구 주부토로 236 (갈산동)",
            "latitude": "37.51499031498426",
            "longitude": "126.72650053682771"
        },
        {
            "name": "인천성모병원",
            "address": "인천광역시 부평구 동수로 56 (부평동)",
            "latitude": "37.48528945224756",
            "longitude": "126.72583716283944"
        },
        {
            "name": "인천경원대로DT",
            "address": "인천광역시 부평구 경원대로 1118 (십정동)",
            "latitude": "37.48016802812922",
            "longitude": "126.69842767662239"
        },
        {
            "name": "인천스퀘어원",
            "address": "인천광역시 연수구 청능대로 210 (동춘동)",
            "latitude": "37.40590327607463",
            "longitude": "126.68250913502574"
        },
        {
            "name": "인천동춘DT",
            "address": "인천광역시 연수구 앵고개로 171 (동춘동)",
            "latitude": "37.41243",
            "longitude": "126.664447"
        },
        {
            "name": "인천송도",
            "address": "인천광역시 연수구 컨벤시아대로 55 (송도동, 송도이안)",
            "latitude": "37.39658518373723",
            "longitude": "126.65155383174638"
        },
        {
            "name": "송도트리플R",
            "address": "인천광역시 연수구 송도과학로16번길 33-1 (송도동)",
            "latitude": "37.38058951045192",
            "longitude": "126.65916738736573"
        },
        {
            "name": "인천송도DT",
            "address": "인천광역시 연수구 하모니로 136 (송도동)",
            "latitude": "37.384821",
            "longitude": "126.644284"
        },
        {
            "name": "인천연수",
            "address": "인천광역시 연수구 용담로 115 (연수동) 105,106,203호",
            "latitude": "37.415072",
            "longitude": "126.677781"
        },
        {
            "name": "송도캠퍼스타운역",
            "address": "인천광역시 연수구 송도과학로27번길 55 (송도동) 롯데캠퍼스타운",
            "latitude": "37.38742756192408",
            "longitude": "126.66364758106691"
        },
        {
            "name": "송도커넬워크",
            "address": "인천광역시 연수구 아트센터대로 131 (송도동)",
            "latitude": "37.39890248614758",
            "longitude": "126.63640390431155"
        },
        {
            "name": "송도센트럴파크",
            "address": "인천광역시 연수구 센트럴로 194 (송도동)",
            "latitude": "37.394656280123954",
            "longitude": "126.6415147616451"
        },
        {
            "name": "연수이마트",
            "address": "인천광역시 연수구 경원대로 184 (동춘동)",
            "latitude": "37.404386",
            "longitude": "126.681528"
        },
        {
            "name": "삼성바이오로직스",
            "address": "인천광역시 연수구 송도바이오대로 300 (송도동)",
            "latitude": "37.3667885340256",
            "longitude": "126.65931166936401"
        },
        {
            "name": "쉐라톤그랜드인천",
            "address": "인천광역시 연수구 컨벤시아대로 153 (송도동)",
            "latitude": "37.3902050159621",
            "longitude": "126.645501281493"
        },
        {
            "name": "송도호반써밋",
            "address": "인천광역시 연수구 랜드마크로 20 (송도동)",
            "latitude": "37.41542651499194",
            "longitude": "126.62397167743491"
        },
        {
            "name": "인천옥련DT",
            "address": "인천광역시 연수구 능허대로 137 (옥련동)",
            "latitude": "37.4213053772688",
            "longitude": "126.64516866057"
        },
        {
            "name": "송도캐슬파크",
            "address": "인천광역시 연수구 인천타워대로132번길 9 (송도동)",
            "latitude": "37.38454814870652",
            "longitude": "126.64119873759479"
        },
        {
            "name": "송도첨단대로",
            "address": "인천광역시 연수구 첨단대로 40 (송도동)",
            "latitude": "37.37044770528137",
            "longitude": "126.65039905049978"
        },
        {
            "name": "송도현대아울렛",
            "address": "인천광역시 연수구 송도국제대로 123 (송도동)",
            "latitude": "37.381314",
            "longitude": "126.657929"
        },
        {
            "name": "송도컨벤시아대로DT",
            "address": "인천광역시 연수구 벤처로 10 (송도동)",
            "latitude": "37.38290440551855",
            "longitude": "126.63697233435906"
        },
        {
            "name": "검단사거리역",
            "address": "인천광역시 서구 완정로 172 (마전동)",
            "latitude": "37.60261127389029",
            "longitude": "126.65719728990277"
        },
        {
            "name": "인천청라센트럴",
            "address": "인천광역시 서구 청라커낼로 300 (청라동, 청라센트럴에일린의뜰)",
            "latitude": "37.5343559",
            "longitude": "126.6492859"
        },
        {
            "name": "인천청라한신",
            "address": "인천광역시 서구 청라커낼로260번길 27 (청라동)",
            "latitude": "37.53209456117847",
            "longitude": "126.64705225119105"
        },
        {
            "name": "인천당하DT",
            "address": "인천광역시 서구 원당대로 668 (당하동)",
            "latitude": "37.593418",
            "longitude": "126.675556"
        },
        {
            "name": "인천청라타워돔",
            "address": "인천광역시 서구 중봉대로 612번길 10-17",
            "latitude": "37.53405866213065",
            "longitude": "126.65234362661088"
        },
        {
            "name": "인천서구청DT",
            "address": "인천광역시 서구 서곶로 277 (심곡동)",
            "latitude": "37.5424157",
            "longitude": "126.67636"
        },
        {
            "name": "인천청라",
            "address": "인천광역시 서구 중봉대로586번길 19 (청라동)",
            "latitude": "37.531943351323925",
            "longitude": "126.65226859253639"
        },
        {
            "name": "인천검단DT",
            "address": "인천광역시 서구 검단로 812 (불로동)",
            "latitude": "37.61685",
            "longitude": "126.6887"
        },
        {
            "name": "루원시티",
            "address": "인천광역시 서구 가정로 437 (가정동, 루원시티 SK Leaders VIEW)",
            "latitude": "37.522948162",
            "longitude": "126.669983101"
        },
        {
            "name": "인천공촌DT",
            "address": "인천광역시 서구 경명대로694번길 2 (공촌동)",
            "latitude": "37.55169811908912",
            "longitude": "126.68535179599749"
        },
        {
            "name": "루원앨리스빌",
            "address": "인천광역시 서구 서곶로 45 (가정동, 루원 린스트라우스 더 린시티)",
            "latitude": "37.52137201020812",
            "longitude": "126.67753806787075"
        },
        {
            "name": "에이펙스청라",
            "address": "인천광역시 서구 청라루비로 81 (청라동)",
            "latitude": "37.532505",
            "longitude": "126.640113"
        },
        {
            "name": "인천청라DT",
            "address": "인천광역시 서구 국제대로 237 (청라동)",
            "latitude": "37.54141304924765",
            "longitude": "126.64703095906634"
        },
        {
            "name": "검단신도시",
            "address": "인천광역시 서구 이음대로 392 (원당동)115,116,117,118,119호",
            "latitude": "37.592609989731144",
            "longitude": "126.712776416439"
        },
        {
            "name": "부평삼거리역DT",
            "address": "인천광역시 남동구 경인로 750 (간석동)",
            "latitude": "37.4766272846985",
            "longitude": "126.71021365261957"
        },
        {
            "name": "인천구월아시아드",
            "address": "인천광역시 남동구 인하로 556 (구월동)",
            "latitude": "37.442715",
            "longitude": "126.708511"
        },
        {
            "name": "인천터미널사거리",
            "address": "인천광역시 남동구 예술로 126 (구월동)",
            "latitude": "37.445260",
            "longitude": "126.700865"
        },
        {
            "name": "인천서창",
            "address": "인천광역시 남동구 서창남로 51 (서창동) 101,102,103호",
            "latitude": "37.424128",
            "longitude": "126.749997"
        },
        {
            "name": "인천간석DT",
            "address": "인천광역시 남동구 경원대로 974 (간석동)",
            "latitude": "37.469719",
            "longitude": "126.690745"
        },
        {
            "name": "인천예술회관역",
            "address": "인천광역시 남동구 예술로 174 (구월동) 흥국생명",
            "latitude": "37.449472",
            "longitude": "126.701438"
        },
        {
            "name": "구월로데오",
            "address": "인천광역시 남동구 인하로 497-22, 2층 (구월동)",
            "latitude": "37.44420071",
            "longitude": "126.7021764"
        },
        {
            "name": "구월길병원",
            "address": "인천광역시 남동구 남동대로 773 가천대길병원 인공지능병원(구월동)",
            "latitude": "37.45167435",
            "longitude": "126.7074902"
        },
        {
            "name": "인천구월",
            "address": "인천광역시 남동구 예술로 138 (구월동) 101,102,111,201,209호 일부,210호 일부",
            "latitude": "37.4462001",
            "longitude": "126.70099720000007"
        },
        {
            "name": "인천논현",
            "address": "인천광역시 남동구 논고개로 93, 111,112, 206, 207호 (논현동)",
            "latitude": "37.39949104535888",
            "longitude": "126.72507429171415"
        },
        {
            "name": "인천구월중앙",
            "address": "인천광역시 남동구 용천로 70 (구월동)",
            "latitude": "37.45587",
            "longitude": "126.71496"
        },
        {
            "name": "간석중앙공원DT",
            "address": "인천광역시 남동구 경인로 563 (간석동)",
            "latitude": "37.463301",
            "longitude": "126.700723"
        },
        {
            "name": "영종하늘도시",
            "address": "인천광역시 중구 하늘중앙로195번길 15 (중산동)",
            "latitude": "37.48964311698442",
            "longitude": "126.5614096679929"
        },
        {
            "name": "영종도운서역",
            "address": "인천광역시 중구 신도시남로142번길 17 (운서동)",
            "latitude": "37.493991",
            "longitude": "126.492667"
        },
        {
            "name": "인천공항중앙",
            "address": "인천광역시 중구 공항로 272 (운서동) 인천국제공항여객터미널 FB-P5-73",
            "latitude": "37.44935850952322",
            "longitude": "126.44977698985042"
        },
        {
            "name": "인스파이어리조트",
            "address": "인천광역시 중구 공항문화로 127 (운서동)",
            "latitude": "37.46554466907955",
            "longitude": "126.38962204777957"
        },
        {
            "name": "인천공항T2에어",
            "address": "인천광역시 중구 제2터미널대로 444 (운서동)인천공항2터미널 3층 Air side",
            "latitude": "37.46586128108467",
            "longitude": "126.43282206633417"
        },
        {
            "name": "인천공항T2랜드B1",
            "address": "인천광역시 중구 제2터미널대로 444 (운서동)",
            "latitude": "37.46950023649197",
            "longitude": "126.43306587403337"
        },
        {
            "name": "인천공항T1랜드B1",
            "address": "인천광역시 중구 공항로 272 (운서동)",
            "latitude": "37.4489769939554",
            "longitude": "126.4515342862197"
        },
        {
            "name": "인천공항T1에어4F",
            "address": "인천광역시 중구 공항로 272 (운서동) 인천공항1터미널 에어4층",
            "latitude": "37.450036743316204",
            "longitude": "126.45079478968303"
        }
    ]
}