{
    "location": "강원",
    "count": 43,
    "date": "2025-07-09",
    "item": [
        {
            "name": "동해DT",
            "address": "강원도 동해시 중앙로 219 (천곡동)",
            "latitude": "37.520193",
            "longitude": "129.114767"
        },
        {
            "name": "동해IC DT",
            "address": "강원도 동해시 동해대로 5453 (평릉동)",
            "latitude": "37.528895841855224",
            "longitude": "129.10441229512531"
        },
        {
            "name": "설악쏘라노",
            "address": "강원도 속초시 미시령로2983번길 111 (장사동)",
            "latitude": "38.210390003372545",
            "longitude": "128.52874855454146"
        },
        {
            "name": "속초DT",
            "address": "강원도 속초시 동해대로 4114 (조양동)",
            "latitude": "38.1898709",
            "longitude": "128.58441240000002"
        },
        {
            "name": "영랑호리조트",
            "address": "강원특별자치도 속초시 영랑호반길 170 (금호동)",
            "latitude": "38.2133466803096",
            "longitude": "128.577448643264"
        },
        {
            "name": "속초교동DT",
            "address": "강원도 속초시 청대로 339 (교동)",
            "latitude": "38.196700501322624",
            "longitude": "128.5721698073452"
        },
        {
            "name": "속초금호DT",
            "address": "강원도 속초시 미시령로 3426 (금호동)",
            "latitude": "38.2090544007249",
            "longitude": "128.580487255221"
        },
        {
            "name": "속초중앙로",
            "address": "강원도 속초시 중앙로 123 (금호동)",
            "latitude": "38.202593",
            "longitude": "128.589453"
        },
        {
            "name": "춘천구봉산R",
            "address": "강원도 춘천시 동면 순환대로 1154-63",
            "latitude": "37.88844243",
            "longitude": "127.77597865"
        },
        {
            "name": "춘천후평DT",
            "address": "강원도 춘천시 후석로 316 (후평동)",
            "latitude": "37.879435",
            "longitude": "127.750579"
        },
        {
            "name": "춘천석사DT",
            "address": "강원도 춘천시 후석로 13 (석사동)",
            "latitude": "37.856608",
            "longitude": "127.739326"
        },
        {
            "name": "춘천명동",
            "address": "강원도 춘천시 중앙로 55 (중앙로2가)",
            "latitude": "37.87999215",
            "longitude": "127.7275212"
        },
        {
            "name": "춘천이마트",
            "address": "강원도 춘천시 경춘로 2353 (온의동) E-마트 춘천점내 1층",
            "latitude": "37.863694604",
            "longitude": "127.718745309"
        },
        {
            "name": "강원대",
            "address": "강원도 춘천시 서부대성로 243-1 (효자동)",
            "latitude": "37.872749",
            "longitude": "127.745062"
        },
        {
            "name": "춘천퇴계DT",
            "address": "강원도 춘천시 안마산로 95 (퇴계동)",
            "latitude": "37.855291",
            "longitude": "127.726209"
        },
        {
            "name": "더춘천의암호R",
            "address": "강원도 춘천시 스포츠타운길 231 (삼천동)",
            "latitude": "37.86354518864174",
            "longitude": "127.69141610366313"
        },
        {
            "name": "춘천후석로DT",
            "address": "강원특별자치도 춘천시 후석로 245 (후평동)",
            "latitude": "37.8732660196784",
            "longitude": "127.752245047411"
        },
        {
            "name": "춘천온의",
            "address": "강원도 춘천시 방송길 104 (온의동)",
            "latitude": "37.867636",
            "longitude": "127.720852"
        },
        {
            "name": "평창DT",
            "address": "강원도 평창군 대관령면 횡계리 262-21",
            "latitude": "37.66816857463086",
            "longitude": "128.71079642907065"
        },
        {
            "name": "비발디파크",
            "address": "강원특별자치도 홍천군 서면 한치골길 262",
            "latitude": "37.645094",
            "longitude": "127.682234"
        },
        {
            "name": "홍천DT",
            "address": "강원특별자치도 홍천군 홍천읍 홍천로 292",
            "latitude": "37.68858744613094",
            "longitude": "127.87769519212331"
        },
        {
            "name": "강릉송정DT",
            "address": "강원도 강릉시 경강로 2400 (송정동)",
            "latitude": "37.77190055295434",
            "longitude": "128.9228904227718"
        },
        {
            "name": "강릉강문해변",
            "address": "강원도 강릉시 창해로350번길 3 (강문동)",
            "latitude": "37.794797597720084",
            "longitude": "128.91860536492365"
        },
        {
            "name": "강릉교동광장",
            "address": "강원도 강릉시 교동광장로 114 (교동)",
            "latitude": "37.76441884354391",
            "longitude": "128.87710509830623"
        },
        {
            "name": "강릉안목항",
            "address": "강원도 강릉시 창해로14번길 40 (견소동)",
            "latitude": "37.771379239005846",
            "longitude": "128.9488565482772"
        },
        {
            "name": "강릉IC DT",
            "address": "강원도 강릉시 경강로 1853 (홍제동)",
            "latitude": "37.7467461225278",
            "longitude": "128.872311808285"
        },
        {
            "name": "강릉아산병원",
            "address": "강원특별자치도 강릉시 사천면 방동길 38",
            "latitude": "37.818391944714605",
            "longitude": "128.85726730086597"
        },
        {
            "name": "강릉율곡DT",
            "address": "강원도 강릉시 율곡로 2996 (교동)",
            "latitude": "37.7698839",
            "longitude": "128.8922189"
        },
        {
            "name": "강릉중앙",
            "address": "강원특별자치도 강릉시 경강로2097 (임당동)",
            "latitude": "37.754962014860084",
            "longitude": "128.89624520678032"
        },
        {
            "name": "강릉주문진",
            "address": "강원특별자치도 강릉시 주문진읍 학교담길 32-8",
            "latitude": "37.88115942248681",
            "longitude": "128.83186120097912"
        },
        {
            "name": "소노델피노",
            "address": "강원도 고성군 토성면 미시령옛길 1153",
            "latitude": "38.21196477440661",
            "longitude": "128.4944296616934"
        },
        {
            "name": "원주반곡DT",
            "address": "강원도 원주시 동부순환로 37 (반곡동)",
            "latitude": "37.3197694936956",
            "longitude": "127.97170902919632"
        },
        {
            "name": "원주명륜DT",
            "address": "강원도 원주시 남원로 588 (명륜동)",
            "latitude": "37.33600703516029",
            "longitude": "127.94988352886877"
        },
        {
            "name": "원주무실",
            "address": "강원도 원주시 능라동길 73 (무실동)",
            "latitude": "37.33301852014017",
            "longitude": "127.93025495840719"
        },
        {
            "name": "원주혁신도시",
            "address": "강원도 원주시 혁신로 61 (반곡동)",
            "latitude": "37.32326584841133",
            "longitude": "127.98093194579466"
        },
        {
            "name": "원주터미널",
            "address": "강원도 원주시 서원대로 178 (단계동)",
            "latitude": "37.34385977067337",
            "longitude": "127.9311165766989"
        },
        {
            "name": "원주시청",
            "address": "강원특별자치도 원주시 시청로 27-1 (무실동)",
            "latitude": "37.34071815361696",
            "longitude": "127.92385561676811"
        },
        {
            "name": "오크밸리",
            "address": "강원도 원주시 지정면 오크밸리1길 70",
            "latitude": "37.43417495876176",
            "longitude": "127.81854393102705"
        },
        {
            "name": "원주문막IC DT",
            "address": "강원도 원주시 문막읍 원문로 1464",
            "latitude": "37.3250061306683",
            "longitude": "127.841718095439"
        },
        {
            "name": "원주IC DT",
            "address": "강원도 원주시 현충로 294 (태장동)",
            "latitude": "37.3796535787322",
            "longitude": "127.94888360686"
        },
        {
            "name": "원주단구DT",
            "address": "강원도 원주시 서원대로 443 (단구동)",
            "latitude": "37.328515",
            "longitude": "127.953443"
        },
        {
            "name": "원주기업도시DT",
            "address": "강원특별자치도 원주시 지정면 기업도시로 224",
            "latitude": "37.3714478035235",
            "longitude": "127.871560132075"
        },
        {
            "name": "원주봉화산DT",
            "address": "강원도 원주시 서원대로 48 (단계동)",
            "latitude": "37.3530655992955",
            "longitude": "127.92221801574"
        }
    ]
}