{
    "location": "부산",
    "count": 146,
    "date": "2025-07-09",
    "item": [
        {
            "name": "금정남산동DT",
            "address": "부산광역시 금정구 중앙대로 1989 (남산동)",
            "latitude": "35.2621786292157",
            "longitude": "129.091325043351"
        },
        {
            "name": "금정구청DT",
            "address": "부산광역시 금정구 중앙대로 1730 (부곡동)",
            "latitude": "35.2388135211636",
            "longitude": "129.092985849499"
        },
        {
            "name": "온천장역DT",
            "address": "부산광역시 금정구 식물원로 13 (장전동)",
            "latitude": "35.224006",
            "longitude": "129.08656"
        },
        {
            "name": "부산대정문",
            "address": "부산광역시 금정구 부산대학로64번길 12 (장전동)",
            "latitude": "35.23212165114605",
            "longitude": "129.0844959292725"
        },
        {
            "name": "부산대역",
            "address": "부산광역시 금정구 장전로12번길 64, 1~4층 (장전동)",
            "latitude": "35.23052180284867",
            "longitude": "129.08869433543111"
        },
        {
            "name": "금정이마트",
            "address": "부산광역시 금정구 중앙대로1841번길 24 (구서동)",
            "latitude": "35.249819818853915",
            "longitude": "129.09078227309334"
        },
        {
            "name": "금정구서",
            "address": "부산광역시 금정구 금강로 441 (구서동)",
            "latitude": "35.246908383445785",
            "longitude": "129.08873844189125"
        },
        {
            "name": "부산서동",
            "address": "부산광역시 금정구 서동로 173 (서동)",
            "latitude": "35.21463924851766",
            "longitude": "129.10558442984572"
        },
        {
            "name": "용호동W스퀘어",
            "address": "부산광역시 남구 분포로 145 (용호동) 더블유스퀘어동 1019호,1020호,1021호,2011호 2012호",
            "latitude": "35.1337011",
            "longitude": "129.113324"
        },
        {
            "name": "동명대DT",
            "address": "부산광역시 남구 신선로 423 (용당동)",
            "latitude": "35.12311959047579",
            "longitude": "129.09901642703608"
        },
        {
            "name": "BIFC Mall",
            "address": "부산광역시 남구 문현금융로 40 (문현동) 부산국제금융센터",
            "latitude": "35.14631046844054",
            "longitude": "129.0658885485103"
        },
        {
            "name": "부산대연역",
            "address": "부산광역시 남구 수영로 240-1, 1층 (대연동)",
            "latitude": "35.13503615347691",
            "longitude": "129.09309969594813"
        },
        {
            "name": "경성대",
            "address": "부산광역시 남구 수영로 312 (대연동)",
            "latitude": "35.137345553736964",
            "longitude": "129.10063775537583"
        },
        {
            "name": "문현이마트",
            "address": "부산광역시 남구 전포대로91번길 47 (문현동)",
            "latitude": "35.144695123536415",
            "longitude": "129.06430350788162"
        },
        {
            "name": "부산유엔공원",
            "address": "부산광역시 남구 유엔로 200 (대연동)",
            "latitude": "35.1299808",
            "longitude": "129.0980971"
        },
        {
            "name": "용호빌리브",
            "address": "부산광역시 남구 분포로 61 (용호동) 빌리브센트로 제B동 101호~106호",
            "latitude": "35.1311",
            "longitude": "129.1125"
        },
        {
            "name": "부산대연못골",
            "address": "부산광역시 남구 못골로 87 (대연동)",
            "latitude": "35.13609516236527",
            "longitude": "129.09191736599408"
        },
        {
            "name": "부산역라마다",
            "address": "부산광역시 동구 중앙대로196번길 10 (초량동)",
            "latitude": "35.11434481154264",
            "longitude": "129.04030612857068"
        },
        {
            "name": "부산역아스티",
            "address": "부산광역시 동구 중앙대로214번길 7-8 (초량동)",
            "latitude": "35.11612791103763",
            "longitude": "129.04171604868281"
        },
        {
            "name": "부산역",
            "address": "부산광역시 동구 중앙대로 216 (초량동)",
            "latitude": "35.11634794930394",
            "longitude": "129.04069059547626"
        },
        {
            "name": "범일동일타워",
            "address": "부산광역시 동구 조방로 14 (범일동)",
            "latitude": "35.13879394894444",
            "longitude": "129.06395425040046"
        },
        {
            "name": "부산초량역",
            "address": "부산광역시 동구 중앙대로 244 (초량동) 1층 일부",
            "latitude": "35.11872",
            "longitude": "129.042078"
        },
        {
            "name": "서면중앙대로R",
            "address": "부산광역시 부산진구 중앙대로 672 (부전동) 1층 2층",
            "latitude": "35.15286800166649",
            "longitude": "129.05944626017197"
        },
        {
            "name": "서면로R",
            "address": "부산광역시 부산진구 서면로 49-1 (부전동)",
            "latitude": "35.15524851626055",
            "longitude": "129.0576381743508"
        },
        {
            "name": "양정역",
            "address": "부산광역시 부산진구 중앙대로 894 (양정동)",
            "latitude": "35.170171720959104",
            "longitude": "129.0692742371578"
        },
        {
            "name": "동의대역",
            "address": "부산광역시 부산진구 가야대로 589 (가야제1동)",
            "latitude": "35.15495095970587",
            "longitude": "129.03618733441533"
        },
        {
            "name": "부산개금역",
            "address": "부산광역시 부산진구 가야대로 462 (개금동)",
            "latitude": "35.1529820637631",
            "longitude": "129.02259825927663"
        },
        {
            "name": "서면전포역",
            "address": "부산광역시 부산진구 전포대로199번길 27 (전포동)",
            "latitude": "35.154364828346324",
            "longitude": "129.06362887930075"
        },
        {
            "name": "부산서면중앙로",
            "address": "부산광역시 부산진구 중앙대로 701 (부전동)",
            "latitude": "35.1554897646539",
            "longitude": "129.0589527478538"
        },
        {
            "name": "서면서전로",
            "address": "부산광역시 부산진구 서전로 19 (부전동)",
            "latitude": "35.157919185437365",
            "longitude": "129.0619520174245"
        },
        {
            "name": "부산서면",
            "address": "부산광역시 부산진구 중앙대로692번길 46-10 (부전동)",
            "latitude": "35.154098",
            "longitude": "129.061562"
        },
        {
            "name": "서면역",
            "address": "부산광역시 부산진구 서전로 1 (부전동)",
            "latitude": "35.15789381388878",
            "longitude": "129.0600009198993"
        },
        {
            "name": "부전역",
            "address": "부산광역시 부산진구 중앙대로 777, 서면호텔 복합시설1,2층 (부전동)",
            "latitude": "35.16181113722542",
            "longitude": "129.06201461279443"
        },
        {
            "name": "서면센트럴스퀘어",
            "address": "부산광역시 부산진구 중앙대로666번길 50 (부전동)",
            "latitude": "35.1516177133099",
            "longitude": "129.06089873180213"
        },
        {
            "name": "서면메디컬거리",
            "address": "부산광역시 부산진구 가야대로 783-1, 1층 (부전동)",
            "latitude": "35.157961",
            "longitude": "129.05740949999995"
        },
        {
            "name": "서면중앙",
            "address": "부산광역시 부산진구 서면로68번길 1 (부전동)",
            "latitude": "35.15685353046891",
            "longitude": "129.05798035954555"
        },
        {
            "name": "서면트레이더스",
            "address": "부산광역시 부산진구 시민공원로 31 (부암동)",
            "latitude": "35.163831285849966",
            "longitude": "129.0530396365257"
        },
        {
            "name": "초읍대공원",
            "address": "부산광역시 부산진구 성지곡로 6 (초읍동)",
            "latitude": "35.1828193069829",
            "longitude": "129.04748360769"
        },
        {
            "name": "서면엠디엠타워",
            "address": "부산광역시 부산진구 중앙대로 639 (범천동)",
            "latitude": "35.14953868695743",
            "longitude": "129.05888780315"
        },
        {
            "name": "서면문화로",
            "address": "부산광역시 부산진구 서면문화로 10 (부전동)",
            "latitude": "35.15885783683483",
            "longitude": "129.057495917852"
        },
        {
            "name": "부산덕천역",
            "address": "부산광역시 북구 만덕대로 30 (덕천동)",
            "latitude": "35.210787",
            "longitude": "129.008358"
        },
        {
            "name": "부산화명역",
            "address": "부산광역시 북구 금곡대로285번길 5 (화명동)",
            "latitude": "35.2336752802956",
            "longitude": "129.013187668175"
        },
        {
            "name": "화명강변DT",
            "address": "부산광역시 북구 금곡대로77 (덕천동)",
            "latitude": "35.216972",
            "longitude": "129.004611"
        },
        {
            "name": "부산구남역DT",
            "address": "부산광역시 북구 백양대로 1040 (구포동)",
            "latitude": "35.1982412867577",
            "longitude": "128.996280148597"
        },
        {
            "name": "부산만덕DT",
            "address": "부산광역시 북구 만덕대로 323 (만덕동)",
            "latitude": "35.213166",
            "longitude": "129.039764"
        },
        {
            "name": "사상주례DT",
            "address": "부산광역시 사상구 백양대로 520 (주례동)",
            "latitude": "35.154847",
            "longitude": "128.996302"
        },
        {
            "name": "동서대DT",
            "address": "부산광역시 사상구 가야대로 338 (주례동)",
            "latitude": "35.150783485507844",
            "longitude": "129.0098599874532"
        },
        {
            "name": "부산사상로",
            "address": "부산광역시 사상구 사상로 200 (괘법동) 105호",
            "latitude": "35.1629709567761",
            "longitude": "128.984586499721"
        },
        {
            "name": "삼락강변DT",
            "address": "부산광역시 사상구 낙동대로 1306 (삼락동)",
            "latitude": "35.176684552695",
            "longitude": "128.976710446542"
        },
        {
            "name": "사상엄궁DT",
            "address": "부산광역시 사상구 낙동대로 744 (엄궁동)",
            "latitude": "35.127533",
            "longitude": "128.969588"
        },
        {
            "name": "부산사상광장로",
            "address": "부산광역시 사상구 광장로 22 (괘법동)",
            "latitude": "35.16265589792603",
            "longitude": "128.97897548212344"
        },
        {
            "name": "사상이마트",
            "address": "부산광역시 사상구 광장로 17 (괘법동)",
            "latitude": "35.163833237506026",
            "longitude": "128.9786199214018"
        },
        {
            "name": "사상역",
            "address": "부산광역시 사상구 사상로 211 (괘법동)",
            "latitude": "35.163891199333676",
            "longitude": "128.9833401567374"
        },
        {
            "name": "다대포비치",
            "address": "부산광역시 사하구 다대로 714 (다대동)",
            "latitude": "35.04912735175173",
            "longitude": "128.96356670482658"
        },
        {
            "name": "다대포DT",
            "address": "부산광역시 사하구 다대로 493 (다대동)",
            "latitude": "35.060973",
            "longitude": "128.975257"
        },
        {
            "name": "을숙도강변DT",
            "address": "부산광역시 사하구 하신번영로 381-6 (하단동)",
            "latitude": "35.115260",
            "longitude": "128.959578"
        },
        {
            "name": "부산괴정역",
            "address": "부산광역시 사하구 사하로186번길 6 (괴정동)",
            "latitude": "35.09850486778899",
            "longitude": "128.9941234873611"
        },
        {
            "name": "하단중앙",
            "address": "부산광역시 사하구 낙동남로 1411 (하단동)",
            "latitude": "35.106522",
            "longitude": "128.966103"
        },
        {
            "name": "하단역2번출구",
            "address": "부산광역시 사하구 낙동남로 1398 (하단동)",
            "latitude": "35.10597061831693",
            "longitude": "128.96449912151837"
        },
        {
            "name": "사하장림DT",
            "address": "부산광역시 사하구 을숙도대로 682 (장림동)",
            "latitude": "35.0849337",
            "longitude": "128.9802207"
        },
        {
            "name": "부산교대역DT",
            "address": "부산광역시 연제구 중앙대로 1250 (거제동)",
            "latitude": "35.198904092650125",
            "longitude": "129.07893128206547"
        },
        {
            "name": "연산시티타워",
            "address": "부산광역시 연제구 중앙대로 1125 (연산동)",
            "latitude": "35.187904937779805",
            "longitude": "129.08093145413935"
        },
        {
            "name": "부산연산역",
            "address": "부산광역시 연제구 반송로 20 (연산동)",
            "latitude": "35.18708216840511",
            "longitude": "129.08318543518365"
        },
        {
            "name": "부산교대",
            "address": "부산광역시 연제구 교대로 20-2 (거제동)",
            "latitude": "35.19568537974173",
            "longitude": "129.07744953386472"
        },
        {
            "name": "연산트레이더스",
            "address": "부산광역시 연제구 좌수영로 241 연산동",
            "latitude": "35.184911403836246",
            "longitude": "129.11250884445252"
        },
        {
            "name": "연산교차로",
            "address": "부산광역시 연제구 중앙대로 1098 (연산동)",
            "latitude": "35.185394802963785",
            "longitude": "129.08161110688536"
        },
        {
            "name": "부산시청",
            "address": "부산광역시 연제구 중앙천로 93 (연산동)",
            "latitude": "35.18159",
            "longitude": "129.07841"
        },
        {
            "name": "연제이마트",
            "address": "부산광역시 연제구 연수로 89 (연산동)",
            "latitude": "35.175745706845255",
            "longitude": "129.08174091127475"
        },
        {
            "name": "부산거제DT",
            "address": "부산광역시 연제구 거제대로 203 (거제동)",
            "latitude": "35.1865001979024",
            "longitude": "129.07157452462"
        },
        {
            "name": "영도청학DT",
            "address": "부산광역시 영도구 태종로 373 (청학동)",
            "latitude": "35.09383102762473",
            "longitude": "129.06509801314024"
        },
        {
            "name": "영도대교",
            "address": "부산광역시 영도구 태종로 39 (대교동1가)",
            "latitude": "35.094416365879304",
            "longitude": "129.03703260805238"
        },
        {
            "name": "부산광복로",
            "address": "부산광역시 중구 광복중앙로 8-2 (광복동3가)",
            "latitude": "35.1000583746614",
            "longitude": "129.03122156965264"
        },
        {
            "name": "자갈치역",
            "address": "부산광역시 중구 구덕로 54-1 (남포동5가)",
            "latitude": "35.09832596040299",
            "longitude": "129.02973667134492"
        },
        {
            "name": "국제시장",
            "address": "부산광역시 중구 대청로 80 (대청동3가)",
            "latitude": "35.1028329653543",
            "longitude": "129.02859285920434"
        },
        {
            "name": "부산중앙역",
            "address": "부산광역시 중구 중앙대로81번길 2 (중앙동4가)",
            "latitude": "35.105097657441014",
            "longitude": "129.0360866880956"
        },
        {
            "name": "남포동역",
            "address": "부산광역시 중구 구덕로 4, 1~2층 (광복동1가)",
            "latitude": "35.098231711510195",
            "longitude": "129.0352223610506"
        },
        {
            "name": "부산비프광장",
            "address": "부산광역시 중구 비프광장로 33 (남포동3가)",
            "latitude": "35.098939258377975",
            "longitude": "129.02876501093598"
        },
        {
            "name": "기장역DT",
            "address": "부산광역시 기장군 기장읍 기장대로 527",
            "latitude": "35.2421513",
            "longitude": "129.220117"
        },
        {
            "name": "동부산DT",
            "address": "부산광역시 기장군 기장읍 기장해안로 56",
            "latitude": "35.184073",
            "longitude": "129.210875"
        },
        {
            "name": "부산정관",
            "address": "부산광역시 기장군 정관읍 정관로 579",
            "latitude": "35.321336",
            "longitude": "129.176983"
        },
        {
            "name": "기장일광DT",
            "address": "부산광역시 기장군 일광읍 기장대로 706",
            "latitude": "35.25724296996289",
            "longitude": "129.22513371734493"
        },
        {
            "name": "부산P.아울렛",
            "address": "부산광역시 기장군 장안읍 정관로 1133",
            "latitude": "35.32270153066869",
            "longitude": "129.23541462883986"
        },
        {
            "name": "동부산테마파크",
            "address": "부산광역시 기장군 기장읍 동부산관광로 34",
            "latitude": "35.19358296608474",
            "longitude": "129.21421852069204"
        },
        {
            "name": "정관신도시DT",
            "address": "부산광역시 기장군 정관읍 모전로 101",
            "latitude": "35.334446374142374",
            "longitude": "129.17072655312796"
        },
        {
            "name": "기장임랑원",
            "address": "부산광역시 기장군 장안읍 임랑해안길 10",
            "latitude": "35.3164532805935",
            "longitude": "129.260928085016"
        },
        {
            "name": "광안수변공원",
            "address": "부산광역시 수영구 민락수변로 29 (민락동)",
            "latitude": "35.1532166",
            "longitude": "129.1246161"
        },
        {
            "name": "수영역",
            "address": "부산광역시 수영구 수영로 671 (광안동)",
            "latitude": "35.16573717329124",
            "longitude": "129.1145750821663"
        },
        {
            "name": "금련산역",
            "address": "부산광역시 수영구 수영로464번길 6 (남천동)",
            "latitude": "35.147170",
            "longitude": "129.110500"
        },
        {
            "name": "광안비치",
            "address": "부산광역시 수영구 광안로62번길 39 (광안동)",
            "latitude": "35.15317424344426",
            "longitude": "129.1178487484164"
        },
        {
            "name": "수영망미DT",
            "address": "부산광역시 수영구 과정로 68 (망미동)",
            "latitude": "35.177411",
            "longitude": "129.107428"
        },
        {
            "name": "광안리",
            "address": "부산광역시 수영구 광안해변로 247 (민락동)",
            "latitude": "35.15504",
            "longitude": "129.1209"
        },
        {
            "name": "남천",
            "address": "부산광역시 수영구 남천바다로 38 (남천동)",
            "latitude": "35.14830649",
            "longitude": "129.1141711"
        },
        {
            "name": "남천더샵",
            "address": "부산광역시 수영구 수영로 389 (남천동, 더샵 남천프레스티지)",
            "latitude": "35.141257063803636",
            "longitude": "129.106706345427"
        },
        {
            "name": "밀락더마켓",
            "address": "부산광역시 수영구 민락수변로17번길 56 (민락동)",
            "latitude": "35.15400258151108",
            "longitude": "129.12727354079507"
        },
        {
            "name": "센텀수영DT",
            "address": "부산광역시 수영구 좌수영로 151 (망미동)",
            "latitude": "35.17746",
            "longitude": "129.117487"
        },
        {
            "name": "스타필드명지",
            "address": "부산광역시 강서구 명지국제6로 168 스타필드 명지 1층",
            "latitude": "35.0934683",
            "longitude": "128.9174322"
        },
        {
            "name": "명지강변DT",
            "address": "부산광역시 강서구 르노삼성대로 620 (명지동)",
            "latitude": "35.1026237",
            "longitude": "128.9294804"
        },
        {
            "name": "명지국제신도시",
            "address": "부산광역시 강서구 명지국제5로 42 (명지동)",
            "latitude": "35.0978",
            "longitude": "128.9203"
        },
        {
            "name": "명지오션시티",
            "address": "부산광역시 강서구 명지오션시티11로 66 (명지동)",
            "latitude": "35.084043",
            "longitude": "128.903135"
        },
        {
            "name": "강서녹산DT",
            "address": "부산광역시 강서구 낙동남로511번길 42 (녹산동)",
            "latitude": "35.1128623326732",
            "longitude": "128.879644210693"
        },
        {
            "name": "명지퍼스트월드",
            "address": "부산광역시 강서구 명지국제7로 37 (명지동, 더샵 명지퍼스트월드 2단지)",
            "latitude": "35.09724028810901",
            "longitude": "128.90666213068852"
        },
        {
            "name": "동래역",
            "address": "부산광역시 동래구 충렬대로181번길 42 (명륜동)",
            "latitude": "35.20557928384287",
            "longitude": "129.08011706501625"
        },
        {
            "name": "명륜역",
            "address": "부산광역시 동래구 동래로 25",
            "latitude": "35.212443",
            "longitude": "129.078378"
        },
        {
            "name": "사직구장",
            "address": "부산광역시 동래구 사직북로 4 (사직동)",
            "latitude": "35.1961928325401",
            "longitude": "129.061604489178"
        },
        {
            "name": "부산안락DT",
            "address": "부산광역시 동래구 충렬대로 446 (안락동)",
            "latitude": "35.1958595",
            "longitude": "129.10695409999994"
        },
        {
            "name": "동래미남DT",
            "address": "부산광역시 동래구 충렬대로 101 (온천동)",
            "latitude": "35.20719597598838",
            "longitude": "129.07202514350354"
        },
        {
            "name": "부산사직",
            "address": "부산광역시 동래구 사직북로 24 (사직동)",
            "latitude": "35.19791171938551",
            "longitude": "129.0605500953889"
        },
        {
            "name": "부산온천장역",
            "address": "부산광역시 동래구 중앙대로 1523, SK허브스카이위아아파트 1층 (온천동)",
            "latitude": "35.2213751233653",
            "longitude": "129.085953323194"
        },
        {
            "name": "부산동래",
            "address": "부산광역시 동래구 충렬대로 194 (명륜동)",
            "latitude": "35.20292773253749",
            "longitude": "129.0810293032682"
        },
        {
            "name": "동래허심청",
            "address": "부산광역시 동래구 온천장로107번길 32 (온천동) 1층",
            "latitude": "35.220761664490546",
            "longitude": "129.08272279990265"
        },
        {
            "name": "부산미남역",
            "address": "부산광역시 동래구 석사북로 108 (온천동)",
            "latitude": "35.20560853458733",
            "longitude": "129.0677604615084"
        },
        {
            "name": "부산송도해수욕장",
            "address": "부산광역시 서구 송도해변로 97(101,102,201) (암남동)",
            "latitude": "35.07710323561051",
            "longitude": "129.01799632893008"
        },
        {
            "name": "부민사거리",
            "address": "부산광역시 서구 구덕로 212 (부민동1가)",
            "latitude": "35.103605807879525",
            "longitude": "129.02022589771644"
        },
        {
            "name": "부산동대신역",
            "address": "부산광역시 서구 구덕로322번길 7 (동대신동3가)",
            "latitude": "35.112587011543894",
            "longitude": "129.01665029206123"
        },
        {
            "name": "동아대병원",
            "address": "부산광역시 서구 동대로 8 (동대신동3가)",
            "latitude": "35.119438528976126",
            "longitude": "129.017307269526"
        },
        {
            "name": "해운대동백",
            "address": "부산광역시 해운대구 해운대해변로 197 (우동, 해운대경동제이드아파트)",
            "latitude": "35.158371",
            "longitude": "129.153065"
        },
        {
            "name": "수영강변DT",
            "address": "부산광역시 해운대구 수영강변대로 516 (반여동)",
            "latitude": "35.203889",
            "longitude": "129.119336"
        },
        {
            "name": "센텀파크",
            "address": "부산광역시 해운대구 센텀중앙로 145 (재송동, 더샵센텀파크1차아파트)",
            "latitude": "35.178759",
            "longitude": "129.122541"
        },
        {
            "name": "해운대역",
            "address": "부산광역시 해운대구 구남로 9 (우동)",
            "latitude": "35.16314488870613",
            "longitude": "129.159592828631"
        },
        {
            "name": "부산재송DT",
            "address": "부산광역시 해운대구 해운대로 189 (재송동)",
            "latitude": "35.181271",
            "longitude": "129.12405"
        },
        {
            "name": "해운대",
            "address": "부산광역시 해운대구 구남로 49 (중동) 101호",
            "latitude": "35.16010998444482",
            "longitude": "129.1621351429391"
        },
        {
            "name": "센텀로",
            "address": "부산광역시 해운대구 센텀2로 10 (우동) 센텀메디컬센타 1층 스타벅스 센텀로점",
            "latitude": "35.16795936349709",
            "longitude": "129.13161527286658"
        },
        {
            "name": "센텀신세계B1",
            "address": "부산광역시 해운대구 센텀남대로 35 (우동) 센텀시티 신세계UEC",
            "latitude": "35.1687027",
            "longitude": "129.1297466"
        },
        {
            "name": "해운대달맞이DT",
            "address": "부산광역시 해운대구 달맞이길 57 (중동) 1~3층",
            "latitude": "35.161561146872124",
            "longitude": "129.17118262179758"
        },
        {
            "name": "센텀그린타워",
            "address": "부산광역시 해운대구 센텀중앙로 78 (우동)",
            "latitude": "35.174668",
            "longitude": "129.126697"
        },
        {
            "name": "부산송정비치",
            "address": "부산광역시 해운대구 송정해변로 36 (송정동)",
            "latitude": "35.1807279",
            "longitude": "129.20227690000001"
        },
        {
            "name": "장산역",
            "address": "부산광역시 해운대구 해운대로 802 (좌동)",
            "latitude": "35.16938036315796",
            "longitude": "129.17635093623397"
        },
        {
            "name": "하버타운",
            "address": "부산광역시 해운대구 해운대해변로 257 (우동)",
            "latitude": "35.1596216193727",
            "longitude": "129.159708147728"
        },
        {
            "name": "벡스코",
            "address": "부산광역시 해운대구 APEC로 55, 벡스코내 (우동)",
            "latitude": "35.16884711",
            "longitude": "129.1354444"
        },
        {
            "name": "팔레드시즈",
            "address": "부산광역시 해운대구 해운대해변로298번길 24, 팔래드시즈 1-3호 (중동)",
            "latitude": "35.16002278096324",
            "longitude": "129.16600632968368"
        },
        {
            "name": "제니스스퀘어",
            "address": "부산광역시 해운대구 마린시티2로 33, 제니스스퀘어 (우동)",
            "latitude": "35.156657",
            "longitude": "129.144091"
        },
        {
            "name": "마린시티아이파크",
            "address": "부산광역시 해운대구 마린시티2로 38 (우동)",
            "latitude": "35.15692363388198",
            "longitude": "129.14342465971165"
        },
        {
            "name": "해운대달맞이",
            "address": "부산광역시 해운대구 달맞이길 189 (중동)",
            "latitude": "35.157925",
            "longitude": "129.182307"
        },
        {
            "name": "해운대이마트",
            "address": "부산광역시 해운대구 좌동순환로 511 (중동) 1층",
            "latitude": "35.166029",
            "longitude": "129.167397"
        },
        {
            "name": "센텀드림월드",
            "address": "부산광역시 해운대구 센텀2로 25, 센텀드림월드 1층 (우동)",
            "latitude": "35.167027",
            "longitude": "129.132829"
        },
        {
            "name": "센텀KNN",
            "address": "부산광역시 해운대구 센텀서로 30 (우동)",
            "latitude": "35.171915887158804",
            "longitude": "129.12851394978156"
        },
        {
            "name": "월드마크센텀",
            "address": "부산광역시 해운대구 센텀동로 25, 1층 (우동)",
            "latitude": "35.17137",
            "longitude": "129.131112"
        },
        {
            "name": "엘시티",
            "address": "부산광역시 해운대구 달맞이길 30 (중동, 엘시티) 1021호, 1022호, 1023호",
            "latitude": "35.15999407665911",
            "longitude": "129.16861715737573"
        },
        {
            "name": "해운대NC",
            "address": "부산광역시 해운대구 해운대로 813 (좌동)",
            "latitude": "35.170306975015485",
            "longitude": "129.1770642834487"
        },
        {
            "name": "해운대좌동",
            "address": "부산광역시 해운대구 좌동순환로 178 (좌동)",
            "latitude": "35.1775937",
            "longitude": "129.1755895"
        },
        {
            "name": "해운대 엑스더스카이",
            "address": "부산광역시 해운대구 달맞이길30",
            "latitude": "35.15977196666398",
            "longitude": "129.16969758941596"
        },
        {
            "name": "부산성모안과병원",
            "address": "부산광역시 해운대구 해운대로 409 (우동)",
            "latitude": "35.167491",
            "longitude": "129.1407913"
        },
        {
            "name": "센텀신세계3F",
            "address": "부산광역시 해운대구 센텀남대로 35 (우동)",
            "latitude": "35.16906348",
            "longitude": "129.12906568"
        },
        {
            "name": "해운대중동역",
            "address": "부산광역시 해운대구 좌동순환로 6 (중동)",
            "latitude": "35.1671846",
            "longitude": "129.1678855"
        },
        {
            "name": "센텀몰1F",
            "address": "부산광역시 해운대구 센텀4로 15 (우동)",
            "latitude": "35.1699363928397",
            "longitude": "129.12834162026075"
        },
        {
            "name": "그랜드조선 부산",
            "address": "부산광역시 해운대구 해운대해변로 292 (중동)",
            "latitude": "35.16005799129259",
            "longitude": "129.16315426317894"
        }
    ]
}