{
    "location": "경남",
    "count": 80,
    "date": "2025-07-09",
    "item": [
        {
            "name": "김해구산DT",
            "address": "경상남도 김해시 김해대로 1918 (구산동)",
            "latitude": "35.255314991",
            "longitude": "128.866384281"
        },
        {
            "name": "김해진영DT",
            "address": "경상남도 김해시 진영읍 여래로20번길 34-26",
            "latitude": "35.3060040933565",
            "longitude": "128.731753216114"
        },
        {
            "name": "신세계김해",
            "address": "경상남도 김해시 김해대로 2232 신세계백화점 1층",
            "latitude": "35.22848288",
            "longitude": "128.873045617"
        },
        {
            "name": "김해이마트",
            "address": "경상남도 김해시 김해대로 2232 김해이마트 1층",
            "latitude": "35.229997434",
            "longitude": "128.872135886"
        },
        {
            "name": "김해대로DT",
            "address": "경상남도 김해시 김해대로 2465",
            "latitude": "35.227992",
            "longitude": "128.896545"
        },
        {
            "name": "김해외동DT",
            "address": "경상남도 김해시 분성로 146 (외동)",
            "latitude": "35.22962555422071",
            "longitude": "128.86294818906367"
        },
        {
            "name": "김해율하",
            "address": "경상남도 김해시 율하카페길 77 (관동동) 1층",
            "latitude": "35.176597",
            "longitude": "128.812782"
        },
        {
            "name": "김해삼계",
            "address": "경상남도 김해시 가야로 182 (삼계동)",
            "latitude": "35.261527",
            "longitude": "128.871614"
        },
        {
            "name": "김해내동",
            "address": "경상남도 김해시 경원로 67 (내동)",
            "latitude": "35.2371519",
            "longitude": "128.86752079999996"
        },
        {
            "name": "서김해IC DT",
            "address": "경상남도 김해시 금관대로 820-22 (명법동)",
            "latitude": "35.2038771973106",
            "longitude": "128.837970580838"
        },
        {
            "name": "김해주촌DT",
            "address": "경상남도 김해시 주촌면 선천로 99",
            "latitude": "35.23513407443546",
            "longitude": "128.84338277636144"
        },
        {
            "name": "김해가야로DT",
            "address": "경상남도 김해시 가야로 450 (동상동)",
            "latitude": "35.2409026",
            "longitude": "128.8843414"
        },
        {
            "name": "장유대청",
            "address": "경상남도 김해시 계동로 213 (대청동)",
            "latitude": "35.1904824838804",
            "longitude": "128.801458773585"
        },
        {
            "name": "장유율하",
            "address": "경상남도 김해시 율하6로 67 1층 105호 (장유동)",
            "latitude": "35.17158031793282",
            "longitude": "128.82264103029556"
        },
        {
            "name": "진영신도시",
            "address": "경상남도 김해시 진영읍 장등로10번길 1",
            "latitude": "35.3074088",
            "longitude": "128.7352952"
        },
        {
            "name": "김해율하신도시",
            "address": "경상남도 김해시 율하3로 32 (율하동)",
            "latitude": "35.170945",
            "longitude": "128.813901"
        },
        {
            "name": "김해금관대로DT",
            "address": "경상남도 김해시 금관대로 1293 (내동)",
            "latitude": "35.23984059831166",
            "longitude": "128.86103985434852"
        },
        {
            "name": "밀양DT",
            "address": "경상남도 밀양시 밀양대로 1792 (삼문동)",
            "latitude": "35.4853274",
            "longitude": "128.7512487"
        },
        {
            "name": "경남사천DT",
            "address": "경상남도 사천시 사천읍 사천대로 1844",
            "latitude": "35.080980061",
            "longitude": "128.083555012"
        },
        {
            "name": "사천벌리",
            "address": "경상남도 사천시 주공로 31 (벌리동)",
            "latitude": "34.9411367",
            "longitude": "128.0863809"
        },
        {
            "name": "진주평거",
            "address": "경상남도 진주시 진양호로 206 BYC빌딩1층",
            "latitude": "35.172324",
            "longitude": "128.060063"
        },
        {
            "name": "진주칠암DT",
            "address": "경상남도 진주시 진주대로829번길 2 (주약동)",
            "latitude": "35.1749073",
            "longitude": "128.0929658"
        },
        {
            "name": "진주중안",
            "address": "경상남도 진주시 진양호로527번길 3 (중안동)",
            "latitude": "35.1929303",
            "longitude": "128.0830383"
        },
        {
            "name": "진주신안",
            "address": "경상남도 진주시 진양호로 353 (신안동)",
            "latitude": "35.1843723",
            "longitude": "128.06821"
        },
        {
            "name": "진주경상대",
            "address": "경상남도 진주시 진주대로 510 (가좌동)",
            "latitude": "35.15241245",
            "longitude": "128.1057139"
        },
        {
            "name": "진주초전DT",
            "address": "경상남도 진주시 대신로 411 (초전동)",
            "latitude": "35.197388",
            "longitude": "128.116032"
        },
        {
            "name": "진주혁신도시",
            "address": "경상남도 진주시 에나로127번길 30 (충무공동)",
            "latitude": "35.180806",
            "longitude": "128.143995"
        },
        {
            "name": "경상대칠암캠퍼스",
            "address": "경상남도 진주시 동진로 22 (칠암동)",
            "latitude": "35.17852605",
            "longitude": "128.09362329"
        },
        {
            "name": "마산회원DT",
            "address": "경상남도 창원시 마산회원구 3·15대로 518 (회원동)",
            "latitude": "35.2206567",
            "longitude": "128.5744344"
        },
        {
            "name": "창원상남로",
            "address": "경상남도 창원시 성산구 상남로 88 (상남동)",
            "latitude": "35.22125492182339",
            "longitude": "128.68112777591222"
        },
        {
            "name": "마산역DT",
            "address": "경상남도 창원시 마산회원구 3·15대로 715 (석전동)",
            "latitude": "35.2362004",
            "longitude": "128.5805449"
        },
        {
            "name": "마산해안대로DT",
            "address": "경상남도 창원시 마산합포구 해안대로 383 (오동동)",
            "latitude": "35.204510322",
            "longitude": "128.580955938"
        },
        {
            "name": "진해자은DT",
            "address": "경상남도 창원시 진해구 진해대로 962 (자은동)",
            "latitude": "35.143793",
            "longitude": "128.706881"
        },
        {
            "name": "창원역DT",
            "address": "경상남도 창원시 의창구 의창대로 68 (팔용동)",
            "latitude": "35.257123763205655",
            "longitude": "128.60783874514348"
        },
        {
            "name": "창원호계DT",
            "address": "경상남도 창원시 마산회원구 내서읍 호원로 315",
            "latitude": "35.261507",
            "longitude": "128.523036"
        },
        {
            "name": "창원마창대교",
            "address": "경상남도 창원시 성산구 삼귀로 159 (귀곡동)",
            "latitude": "35.170623",
            "longitude": "128.597273"
        },
        {
            "name": "삼성창원병원",
            "address": "경상남도 창원시 마산회원구 팔용로 158 (합성동)",
            "latitude": "35.24256504",
            "longitude": "128.59246006"
        },
        {
            "name": "진해용원",
            "address": "경상남도 창원시 진해구 안골로 336 (용원동) 형제빌딩",
            "latitude": "35.101122",
            "longitude": "128.809896"
        },
        {
            "name": "창원리베라",
            "address": "경상남도 창원시 성산구 중앙대로100번길 9 (상남동)",
            "latitude": "35.223307416091394",
            "longitude": "128.68031896033554"
        },
        {
            "name": "창원상남중앙",
            "address": "경상남도 창원시 성산구 마디미로 20 (상남동)",
            "latitude": "35.22267448372802",
            "longitude": "128.68435847588333"
        },
        {
            "name": "창원상남동R",
            "address": "경상남도 창원시 성산구 상남로 132 (상남동)",
            "latitude": "35.22456795294977",
            "longitude": "128.68396928258363"
        },
        {
            "name": "신세계마산",
            "address": "경상남도 창원시 마산합포구 합포로 251 (산호동) 신세계백화점 내 지하1층",
            "latitude": "35.21936342",
            "longitude": "128.58675435"
        },
        {
            "name": "창원시티세븐",
            "address": "경상남도 창원시 성산구 원이대로 320 (대원동)",
            "latitude": "35.2401056",
            "longitude": "128.6535354"
        },
        {
            "name": "경남대",
            "address": "경상남도 창원시 마산합포구 월영남로 3 (해운동)",
            "latitude": "35.178461",
            "longitude": "128.5586"
        },
        {
            "name": "창원용지호수",
            "address": "경상남도 창원시 성산구 용지로169번길 1 (용호동)",
            "latitude": "35.229881",
            "longitude": "128.68189"
        },
        {
            "name": "마산월남동DT",
            "address": "경상남도 창원시 마산합포구 3·15대로 70 (월남동2가)",
            "latitude": "35.18582228792928",
            "longitude": "128.5612262376559"
        },
        {
            "name": "마산봉암로DT",
            "address": "경상남도 창원시 마산회원구 봉양로 118 (봉암동)",
            "latitude": "35.218819535",
            "longitude": "128.59931839"
        },
        {
            "name": "진해경화역DT",
            "address": "경상남도 창원시 진해구 진해대로 698 (경화동)",
            "latitude": "35.159250543",
            "longitude": "128.691820647"
        },
        {
            "name": "창원반림",
            "address": "경상남도 창원시 성산구 반송로 150 (반림동)",
            "latitude": "35.23604777804381",
            "longitude": "128.6717420588344"
        },
        {
            "name": "창원유니시티",
            "address": "경상남도 창원시 의창구 중동중앙로 47 (중동)",
            "latitude": "35.25650979",
            "longitude": "128.62529086"
        },
        {
            "name": "창원NC파크R",
            "address": "경상남도 창원시 마산회원구 삼호로 63 (양덕동), 창원NC파크",
            "latitude": "35.22342934",
            "longitude": "128.58269298"
        },
        {
            "name": "창원중앙역",
            "address": "경상남도 창원시 의창구 용동로 91 (사림동)",
            "latitude": "35.238753",
            "longitude": "128.701406"
        },
        {
            "name": "진해부산신항",
            "address": "경상남도 창원시 진해구 신항동로 121 (용원동) 112호",
            "latitude": "35.08841817",
            "longitude": "128.81473883"
        },
        {
            "name": "창원경상대병원",
            "address": "경상남도 창원시 성산구 삼정자로 11 (성주동)",
            "latitude": "35.19889879953514",
            "longitude": "128.70698434933143"
        },
        {
            "name": "창원대로DT",
            "address": "경상남도 창원시 성산구 성산패총로 182 (가음정동)",
            "latitude": "35.2095615963132",
            "longitude": "128.683681913031"
        },
        {
            "name": "창원사파",
            "address": "경상남도 창원시 성산구 창이대로689번길 4-4 (사파동) 1,2층",
            "latitude": "35.22312859619139",
            "longitude": "128.7007017411131"
        },
        {
            "name": "창원파티마병원",
            "address": "경상남도 창원시 의창구 창이대로 45 (명서동)",
            "latitude": "35.23679725",
            "longitude": "128.64583124"
        },
        {
            "name": "창원내서",
            "address": "경상남도 창원시 마산회원구 내서읍 광려천서로 81",
            "latitude": "35.2490312214725",
            "longitude": "128.510681026083"
        },
        {
            "name": "창원대방",
            "address": "경상남도 창원시 성산구 가양로124번길 4 (대방동),  1층 104호",
            "latitude": "35.209242593324696",
            "longitude": "128.7066600750564"
        },
        {
            "name": "마산진동DT",
            "address": "경상남도 창원시 마산합포구 진동면 삼진의거대로 589-1",
            "latitude": "35.114308",
            "longitude": "128.482418"
        },
        {
            "name": "통영이마트",
            "address": "경상남도 통영시 광도면 죽림4로 9",
            "latitude": "34.886597495",
            "longitude": "128.417895263"
        },
        {
            "name": "통영죽림",
            "address": "경상남도 통영시 광도면 죽림해안로 64-72",
            "latitude": "34.882242",
            "longitude": "128.422815"
        },
        {
            "name": "통영북신DT",
            "address": "경상남도 통영시 중앙로 273 (북신동)",
            "latitude": "34.8547537944604",
            "longitude": "128.428162068745"
        },
        {
            "name": "거제대로DT",
            "address": "경상남도 거제시 거제대로 4521 (수월동)",
            "latitude": "34.894667",
            "longitude": "128.641559"
        },
        {
            "name": "거제고현",
            "address": "경상남도 거제시 거제중앙로 1936 (고현동)",
            "latitude": "34.8907709",
            "longitude": "128.6221848"
        },
        {
            "name": "소노캄거제",
            "address": "경상남도 거제시 일운면 거제대로 2660 1층 110호",
            "latitude": "34.84384342",
            "longitude": "128.702360332"
        },
        {
            "name": "거제상동DT",
            "address": "경상남도 거제시 거제중앙로 1647 (상동동)",
            "latitude": "34.868574",
            "longitude": "128.637515"
        },
        {
            "name": "거제옥포DT",
            "address": "경상남도 거제시 거제대로 3718 (옥포동)",
            "latitude": "34.88898292568363",
            "longitude": "128.69150509599194"
        },
        {
            "name": "거제장평",
            "address": "경상남도 거제시 장평3로 43 (장평동)",
            "latitude": "34.892974",
            "longitude": "128.608744"
        },
        {
            "name": "남양산IC DT",
            "address": "경상남도 양산시 동면 양산대로 532",
            "latitude": "35.319987",
            "longitude": "129.030485"
        },
        {
            "name": "양산증산역",
            "address": "경상남도 양산시 물금읍 증산역로 177",
            "latitude": "35.30898019301058",
            "longitude": "129.00945734552783"
        },
        {
            "name": "양산가촌",
            "address": "경상남도 양산시 물금읍 야리로 25",
            "latitude": "35.3171469065169",
            "longitude": "129.001498744995"
        },
        {
            "name": "양산덕계DT",
            "address": "경상남도 양산시 웅상대로 860 (덕계동)",
            "latitude": "35.3761068854677",
            "longitude": "129.15552304160047"
        },
        {
            "name": "양산터미널",
            "address": "경상남도 양산시 양산역1길 7 (중부동) 양산시외버스터미널",
            "latitude": "35.3353404",
            "longitude": "129.02685"
        },
        {
            "name": "양산범어",
            "address": "경상남도 양산시 물금읍 범어로 62",
            "latitude": "35.3287435162243",
            "longitude": "129.014307074921"
        },
        {
            "name": "양산이마트",
            "address": "경상남도 양산시 양산역6길 12, 양산이마트 1층 (중부동)",
            "latitude": "35.33706607072501",
            "longitude": "129.02690161220042"
        },
        {
            "name": "양산물금DT",
            "address": "경상남도 양산시 물금읍 황산로 346",
            "latitude": "35.3075354379422",
            "longitude": "128.986400471101"
        },
        {
            "name": "양산통도사",
            "address": "경상남도 양산시 하북면 충렬로 1553",
            "latitude": "35.4722969553954",
            "longitude": "129.079009870903"
        },
        {
            "name": "양산부산대학교병원",
            "address": "경상남도 양산시 물금읍 금오로 20",
            "latitude": "35.32806420490634",
            "longitude": "129.0063449567268"
        },
        {
            "name": "양산신기DT",
            "address": "경상남도 양산시 양산대로 947 (신기동)",
            "latitude": "35.355007631985565",
            "longitude": "129.03816275068954"
        }
    ]
}