{
    "location": "경기",
    "count": 501,
    "date": "2025-07-09",
    "item": [
        {
            "name": "리버사이드대성리DT",
            "address": "경기도 가평군 청평면 경춘로 258",
            "latitude": "37.69825440707157",
            "longitude": "127.3852165854917"
        },
        {
            "name": "가평설악IC DT",
            "address": "경기도 가평군 설악면 신선봉로 14",
            "latitude": "37.67905252127808",
            "longitude": "127.48638178238548"
        },
        {
            "name": "남이섬",
            "address": "경기도 가평군 가평읍 북한강변로 1054 북한강변로 1054",
            "latitude": "37.806624",
            "longitude": "127.52527"
        },
        {
            "name": "소노캄고양",
            "address": "경기도 고양시 일산동구 태극로 18 (장항동)",
            "latitude": "37.662855441267716",
            "longitude": "126.75051316953129"
        },
        {
            "name": "일산애니골DT",
            "address": "경기도 고양시 일산동구 무궁화로 294 (풍동)",
            "latitude": "37.67487449705626",
            "longitude": "126.79364390723381"
        },
        {
            "name": "동국대일산병원",
            "address": "경기도 고양시 일산동구 동국로 27 (식사동)",
            "latitude": "37.67645946275437",
            "longitude": "126.80648567004755"
        },
        {
            "name": "일산풍동DT",
            "address": "경기도 고양시 일산동구 백마로 475 (풍동)",
            "latitude": "37.662091",
            "longitude": "126.800900"
        },
        {
            "name": "백석중앙로",
            "address": "경기도 고양시 일산동구 강송로 33 (백석동)",
            "latitude": "37.6411",
            "longitude": "126.790987"
        },
        {
            "name": "일산식사",
            "address": "경기도 고양시 일산동구 위시티2로11번길 31 (식사동)",
            "latitude": "37.67817354351826",
            "longitude": "126.81203866075508"
        },
        {
            "name": "풍산이마트",
            "address": "경기도 고양시 일산동구 무궁화로 237 (중산동)",
            "latitude": "37.673769",
            "longitude": "126.786883"
        },
        {
            "name": "백석역DT",
            "address": "경기도 고양시 일산동구 중앙로 1054, 1층 (백석동)",
            "latitude": "37.6439377",
            "longitude": "126.7873856"
        },
        {
            "name": "백석",
            "address": "경기도 고양시 일산동구 중앙로 1059 (백석동)",
            "latitude": "37.643888",
            "longitude": "126.786153"
        },
        {
            "name": "라페스타광장",
            "address": "경기도 고양시 일산동구 중앙로1275번길 38-9 (장항동)",
            "latitude": "37.659671",
            "longitude": "126.770161"
        },
        {
            "name": "일산백마",
            "address": "경기도 고양시 일산동구 일산로 237 (마두동)",
            "latitude": "37.6570742",
            "longitude": "126.7880695"
        },
        {
            "name": "웨스턴돔B",
            "address": "경기도 고양시 일산동구 정발산로 24 (장항동)",
            "latitude": "37.654405198942015",
            "longitude": "126.77330239554712"
        },
        {
            "name": "마두역",
            "address": "경기도 고양시 일산동구 중앙로 1191 (장항동)",
            "latitude": "37.652965",
            "longitude": "126.776768"
        },
        {
            "name": "일산동구청",
            "address": "경기도 고양시 일산동구 정발산로 38 (장항동)",
            "latitude": "37.65665",
            "longitude": "126.772598"
        },
        {
            "name": "고양대로DT",
            "address": "경기도 고양시 일산동구 고양대로 910 (풍동)",
            "latitude": "37.677601",
            "longitude": "126.7961618"
        },
        {
            "name": "일산하늘마을",
            "address": "경기도 고양시 일산동구 중산로 61 (중산동)",
            "latitude": "37.677568477730844",
            "longitude": "126.78239696017053"
        },
        {
            "name": "과천DT",
            "address": "경기도 과천시 중앙로 277 (중앙동)",
            "latitude": "37.43929087256856",
            "longitude": "126.99381334849441"
        },
        {
            "name": "과천이마트",
            "address": "경기도 과천시 별양상가3로 11 이마트 1층(별양동)",
            "latitude": "37.4264940536451",
            "longitude": "126.991639556541"
        },
        {
            "name": "과천",
            "address": "경기도 과천시 중앙로 129, 고려빌딩 1층 (중앙동)",
            "latitude": "37.428210445654",
            "longitude": "126.99101514264228"
        },
        {
            "name": "과천지식정보타운",
            "address": "경기도 과천시 과천대로7길 12 (갈현동)",
            "latitude": "37.413536064557476",
            "longitude": "126.98030268718213"
        },
        {
            "name": "과천메가존",
            "address": "경기도 과천시 과천대로 7길 74 (갈현동) 1층 105-1호",
            "latitude": "37.417218425137236",
            "longitude": "126.97721495342817"
        },
        {
            "name": "광명하안대로",
            "address": "경기도 광명시 범안로 1036 (하안동)",
            "latitude": "37.4616837",
            "longitude": "126.8783697"
        },
        {
            "name": "철산역",
            "address": "경기도 광명시 철산로 15 (철산동)",
            "latitude": "37.476426639601286",
            "longitude": "126.86779457770173"
        },
        {
            "name": "광명역",
            "address": "경기도 광명시 양지로 16 (일직동, 광명역써밋플레이스)",
            "latitude": "37.41674051514128",
            "longitude": "126.88200879701506"
        },
        {
            "name": "광명소하DT",
            "address": "경기도 광명시 오리로 363 (소하동)",
            "latitude": "37.4348391789342",
            "longitude": "126.8792685970431"
        },
        {
            "name": "광명소하",
            "address": "경기도 광명시 금하로 464 (소하동)",
            "latitude": "37.448660",
            "longitude": "126.883959"
        },
        {
            "name": "광명사거리역",
            "address": "경기도 광명시 광명로 907 (광명동)",
            "latitude": "37.479895",
            "longitude": "126.854325"
        },
        {
            "name": "철산로데오",
            "address": "경기도 광명시 디지털로 17 (철산1동) 가림빌딩",
            "latitude": "37.4739663",
            "longitude": "126.86935070000004"
        },
        {
            "name": "광명하안",
            "address": "경기도 광명시 범안로 1060 (하안동)",
            "latitude": "37.462605",
            "longitude": "126.880577"
        },
        {
            "name": "광명철산",
            "address": "경기도 광명시 오리로 865 (철산동)",
            "latitude": "37.475304",
            "longitude": "126.866126"
        },
        {
            "name": "광명AK",
            "address": "경기도 광명시 양지로 17 (일직동), 1층 일부",
            "latitude": "37.418831962659624",
            "longitude": "126.8831012995512"
        },
        {
            "name": "광명롯데몰",
            "address": "경기도 광명시 일직로 17 (일직동) 롯데아울렛 1층",
            "latitude": "37.42311336574412",
            "longitude": "126.88469887231989"
        },
        {
            "name": "경기광주쌍령DT",
            "address": "경기도 광주시 경충대로 1445 (쌍령동)",
            "latitude": "37.3987506",
            "longitude": "127.2733178"
        },
        {
            "name": "경기광주신현DT",
            "address": "경기도 광주시 오포읍 태재로 37",
            "latitude": "37.3598817267976",
            "longitude": "127.15315140478435"
        },
        {
            "name": "경기광주송정DT",
            "address": "경기도 광주시 경안천로 118 (송정동)",
            "latitude": "37.416384",
            "longitude": "127.27257"
        },
        {
            "name": "경기광주",
            "address": "경기도 광주시 광주대로 35 (경안동)",
            "latitude": "37.4097851",
            "longitude": "127.26021279999997"
        },
        {
            "name": "경기광주초월역DT",
            "address": "경기도 광주시 초월읍 경충대로 1084",
            "latitude": "37.374402",
            "longitude": "127.298258"
        },
        {
            "name": "경기광주IC DT",
            "address": "경기도 광주시 경충대로 1879 (장지동)",
            "latitude": "37.4056810278331",
            "longitude": "127.231238126345"
        },
        {
            "name": "곤지암IC DT",
            "address": "경기도 광주시 곤지암읍 경충대로 765 경충대로 765",
            "latitude": "37.355682",
            "longitude": "127.325248"
        },
        {
            "name": "경기광주태전",
            "address": "경기도 광주시 태전중앙2길 21 (태전동)",
            "latitude": "37.3825343644297",
            "longitude": "127.233160845091"
        },
        {
            "name": "구리갈매역",
            "address": "경기도 구리시 경춘북로 252 (갈매동, 갈매역아이파크)",
            "latitude": "37.633967",
            "longitude": "127.115944"
        },
        {
            "name": "구리돌다리",
            "address": "경기도 구리시 검배로 5, 우진빌딩 (수택동)",
            "latitude": "37.600585",
            "longitude": "127.141922"
        },
        {
            "name": "구리갈매DT",
            "address": "경기도 구리시 갈매순환로 148 (갈매동) 1-2층",
            "latitude": "37.63237",
            "longitude": "127.1226"
        },
        {
            "name": "구리장자호수",
            "address": "경기도 구리시 장자대로 84 (수택동)",
            "latitude": "37.587252",
            "longitude": "127.139874"
        },
        {
            "name": "구리인창DT",
            "address": "경기도 구리시 건원대로 53 (인창동)",
            "latitude": "37.60568",
            "longitude": "127.13928"
        },
        {
            "name": "구리수택",
            "address": "경기도 구리시 체육관로 44 (수택동)1-2층 , 옥외공간",
            "latitude": "37.588465",
            "longitude": "127.138136"
        },
        {
            "name": "구리토평DT",
            "address": "경기도 구리시 벌말로 88 (토평동)",
            "latitude": "37.584632",
            "longitude": "127.147385"
        },
        {
            "name": "산본사거리",
            "address": "경기도 군포시 고산로701",
            "latitude": "37.372658",
            "longitude": "126.935735"
        },
        {
            "name": "산본",
            "address": "경기도 군포시 산본로343번길 9 (산본동) 1층",
            "latitude": "37.36061352",
            "longitude": "126.9317436"
        },
        {
            "name": "산본역",
            "address": "경기도 군포시 번영로 497, 금화프라자 1층 (산본동)",
            "latitude": "37.3584131",
            "longitude": "126.9321916"
        },
        {
            "name": "산본동",
            "address": "경기도 군포시 산본로 398, 태주빌딩 2층",
            "latitude": "37.365491",
            "longitude": "126.929426"
        },
        {
            "name": "금정AK",
            "address": "경기도 군포시 엘에스로 143 (금정동, 힐스테이트 금정역), AK플라자 4층 일부",
            "latitude": "37.372279107122",
            "longitude": "126.94486272941"
        },
        {
            "name": "산본역서부사거리",
            "address": "경기도 군포시 번영로 485 (산본동) 롯데피트인 산본 1층 일부",
            "latitude": "37.3578052964351",
            "longitude": "126.93066890189"
        },
        {
            "name": "다산지금",
            "address": "경기도 남양주시 다산지금로 139 (다산동)",
            "latitude": "37.6005424",
            "longitude": "127.174302"
        },
        {
            "name": "남양주연평DT",
            "address": "경기도 남양주시 진접읍 해밀예당1로 27",
            "latitude": "37.71152699000976",
            "longitude": "127.18552784928377"
        },
        {
            "name": "다산진건",
            "address": "경기도 남양주시 다산중앙로123번길 22-26 (다산동) 123호~128호",
            "latitude": "37.624813",
            "longitude": "127.152582"
        },
        {
            "name": "도농역",
            "address": "경기도 남양주시 미금로 239 (다산동)",
            "latitude": "37.611129",
            "longitude": "127.164199"
        },
        {
            "name": "남양주진접DT",
            "address": "경기도 남양주시 진접읍 금강로 1477",
            "latitude": "37.72288064054035",
            "longitude": "127.19029743229571"
        },
        {
            "name": "리버사이드팔당DT",
            "address": "경기도 남양주시 와부읍 경강로 772",
            "latitude": "37.567114",
            "longitude": "127.228362"
        },
        {
            "name": "별내불암로",
            "address": "경기도 남양주시 별내5로5번길 15 (별내동)",
            "latitude": "37.650317",
            "longitude": "127.112364"
        },
        {
            "name": "평내DT",
            "address": "경기도 남양주시 경춘로 1269",
            "latitude": "37.6477605",
            "longitude": "127.23469380000006"
        },
        {
            "name": "별내",
            "address": "경기도 남양주시 별내중앙로 64 1-2층",
            "latitude": "37.6479682",
            "longitude": "127.1233987"
        },
        {
            "name": "평내호평역",
            "address": "경기도 남양주시 늘을1로16번길 25, 성보빌딩 (호평동)",
            "latitude": "37.6540359",
            "longitude": "127.24287989999993"
        },
        {
            "name": "진접역",
            "address": "경기도 남양주시 진접읍 해밀예당1로235번길 3-5",
            "latitude": "37.7209",
            "longitude": "127.2033"
        },
        {
            "name": "더북한강R",
            "address": "경기도 남양주시 화도읍 북한강로 1098",
            "latitude": "37.61247933285255",
            "longitude": "127.34202120989393"
        },
        {
            "name": "남양주화도DT",
            "address": "경기도 남양주시 화도읍 수레로 1137 1~2층",
            "latitude": "37.6389955",
            "longitude": "127.3033633"
        },
        {
            "name": "다산DT",
            "address": "경기도 남양주시 다산중앙로 19번길5 (다산동)",
            "latitude": "37.61424",
            "longitude": "127.15537"
        },
        {
            "name": "남양주묵현DT",
            "address": "경기도 남양주시 화도읍 비룡로 122",
            "latitude": "37.6631",
            "longitude": "127.30263"
        },
        {
            "name": "다산이마트",
            "address": "경기도 남양주시 도농로 24 (다산동, 부영애시앙)",
            "latitude": "37.60868",
            "longitude": "127.15842"
        },
        {
            "name": "별내별가람역",
            "address": "경기도 남양주시 덕송2로 62 (별내동)",
            "latitude": "37.66795353026899",
            "longitude": "127.11705030428506"
        },
        {
            "name": "남양주삼패",
            "address": "경기도 남양주시 경강로 384 (삼패동)1-2층 옥탑",
            "latitude": "37.59187625063271",
            "longitude": "127.19956229624581"
        },
        {
            "name": "남양주행정타운",
            "address": "경기도 남양주시 경춘로 498 (다산동)",
            "latitude": "37.6107558",
            "longitude": "127.1681919"
        },
        {
            "name": "판교유스페이스",
            "address": "경기도 성남시 분당구 대왕판교로 660 (삼평동)",
            "latitude": "37.401270",
            "longitude": "127.107533"
        },
        {
            "name": "판교알파돔타워",
            "address": "경기도 성남시 분당구 판교역로 152 (백현동)",
            "latitude": "37.3941783",
            "longitude": "127.1106448"
        },
        {
            "name": "판교아비뉴프랑R",
            "address": "경기도 성남시 분당구 동판교로177번길 25 (삼평동, 판교 호반 써밋 플레이스)",
            "latitude": "37.3972109045547",
            "longitude": "127.113392362314"
        },
        {
            "name": "야탑터미널",
            "address": "경기도 성남시 분당구 성남대로925번길 16 (야탑동)",
            "latitude": "37.413494",
            "longitude": "127.128425"
        },
        {
            "name": "분당이매",
            "address": "경기도 성남시 분당구 이매로 15 (이매동)",
            "latitude": "37.39504",
            "longitude": "127.122363"
        },
        {
            "name": "분당율동공원",
            "address": "경기도 성남시 분당구 새마을로175번길 4 (율동)",
            "latitude": "37.38385",
            "longitude": "127.149963"
        },
        {
            "name": "정자동",
            "address": "경기도 성남시 분당구 정자로 82 (정자동)",
            "latitude": "37.363290",
            "longitude": "127.114074"
        },
        {
            "name": "판교알파돔시티",
            "address": "경기도 성남시 분당구 판교역로 145 타워2동 1층, 138~142호 (백현동530, 알파리움)",
            "latitude": "37.394457574463",
            "longitude": "127.109362231264"
        },
        {
            "name": "서판교",
            "address": "경기도 성남시 분당구 운중로 132 (운중동)",
            "latitude": "37.39142336810393",
            "longitude": "127.07766773828763"
        },
        {
            "name": "판교브릿지타워",
            "address": "경기도 성남시 분당구 판교로 227번길 6 (삼평동)",
            "latitude": "37.403323671",
            "longitude": "127.099085906"
        },
        {
            "name": "판교역로",
            "address": "경기도 성남시 분당구 판교역로 192번길 14 (삼평동)",
            "latitude": "37.39731",
            "longitude": "127.111294"
        },
        {
            "name": "서현",
            "address": "경기도 성남시 분당구 황새울로360번길 19 (서현동) 금화빌딩",
            "latitude": "37.38600976659212",
            "longitude": "127.12593763355153"
        },
        {
            "name": "수내로",
            "address": "경기도 성남시 분당구 수내로46번길 12 (수내동) 코아빌딩",
            "latitude": "37.380487064162686",
            "longitude": "127.11659357638696"
        },
        {
            "name": "정자역",
            "address": "경기도 성남시 분당구 성남대로343번길 12-2 (정자동), 1~2층",
            "latitude": "37.36682377",
            "longitude": "127.1067347"
        },
        {
            "name": "분당구청",
            "address": "경기도 성남시 분당구 분당로 43 (서현동)",
            "latitude": "37.38411236228278",
            "longitude": "127.12016448946295"
        },
        {
            "name": "뉴코아야탑",
            "address": "경기도 성남시 분당구 야탑로81번길 11, 뉴코아 야탑점 아울렛 1층 (야탑동)",
            "latitude": "37.41041291",
            "longitude": "127.1273"
        },
        {
            "name": "미금역",
            "address": "경기도 성남시 분당구 돌마로 43 (금곡동) 메디파크빌딩",
            "latitude": "37.350318",
            "longitude": "127.106655"
        },
        {
            "name": "수내",
            "address": "경기도 성남시 분당구 황새울로 234, 분당트라팰리스 (수내동)",
            "latitude": "37.379601356964855",
            "longitude": "127.11475179628877"
        },
        {
            "name": "정자상떼뷰",
            "address": "경기도 성남시 분당구 정자일로213번길 18 (정자동, 성원상떼뷰리젠시)",
            "latitude": "37.3700972411991",
            "longitude": "127.105680374927"
        },
        {
            "name": "서현미래에셋",
            "address": "경기도 성남시 분당구 황새울로359번길 11, 미래에셋빌딩 1층 (서현동)",
            "latitude": "37.388005960455075",
            "longitude": "127.12339460130116"
        },
        {
            "name": "야탑글라스",
            "address": "경기도 성남시 분당구 성남대로916번길 11 (야탑동)",
            "latitude": "37.410845",
            "longitude": "127.129806"
        },
        {
            "name": "정자",
            "address": "경기도 성남시 분당구 정자일로 166, SPG센터 (정자동)",
            "latitude": "37.36487523071937",
            "longitude": "127.10631085942872"
        },
        {
            "name": "분당서울대병원4",
            "address": "경기도 성남시 분당구 구미로173번길 82, 분당서울대학교병원 신관 4층 (구미동)",
            "latitude": "37.35104056947326",
            "longitude": "127.12417774553253"
        },
        {
            "name": "분당서울대병원1",
            "address": "경기도 성남시 분당구 구미로173번길 82, 분당서울대학교병원 신관 1층 (구미동)",
            "latitude": "37.35104056947326",
            "longitude": "127.12417774553253"
        },
        {
            "name": "서현N타운",
            "address": "경기도 성남시 분당구 황새울로335번길 5 (서현동)",
            "latitude": "37.38591695629877",
            "longitude": "127.12207568328725"
        },
        {
            "name": "서현역",
            "address": "경기도 성남시 분당구 서현로210번길 20, 1층 (서현동)",
            "latitude": "37.38600944202597",
            "longitude": "127.12411400535445"
        },
        {
            "name": "오리역",
            "address": "경기도 성남시 분당구 성남대로 32, 1층 (구미동)",
            "latitude": "37.338617",
            "longitude": "127.109225"
        },
        {
            "name": "분당정자",
            "address": "경기도 성남시 분당구 성남대로 393, 두산위브파빌리온 1층 (정자동)",
            "latitude": "37.37190496701959",
            "longitude": "127.10688526376881"
        },
        {
            "name": "수내역",
            "address": "경기도 성남시 분당구 백현로101번길 30, 1-2층 (수내동)",
            "latitude": "37.37775755935278",
            "longitude": "127.1136650918293"
        },
        {
            "name": "정자아데나",
            "address": "경기도 성남시 분당구 성남대로 275 (정자동)",
            "latitude": "37.3603282545579",
            "longitude": "127.107743660786"
        },
        {
            "name": "분당이마트",
            "address": "경기도 성남시 분당구 불정로 134 (정자동)",
            "latitude": "37.35906170927517",
            "longitude": "127.12006527833034"
        },
        {
            "name": "판교H스퀘어",
            "address": "경기도 성남시 분당구 판교역로 231, 에이치스퀘어 (삼평동)",
            "latitude": "37.4012201420784",
            "longitude": "127.108925941221"
        },
        {
            "name": "오리역삼거리",
            "address": "경기도 성남시 분당구 성남대로 45 (구미동)",
            "latitude": "37.339973519618624",
            "longitude": "127.10829010736299"
        },
        {
            "name": "판교HIPEX",
            "address": "경기도 성남시 분당구 판교역로 230, 판교 삼환 HIPEX (삼평동)",
            "latitude": "37.401209",
            "longitude": "127.110666"
        },
        {
            "name": "판교도서관",
            "address": "경기도 성남시 분당구 운중로 251 (판교동)",
            "latitude": "37.38955136653922",
            "longitude": "127.09090905712297"
        },
        {
            "name": "네이버1784",
            "address": "경기도 성남시 분당구 정자일로 95 (정자동) 네이버1784 2층",
            "latitude": "37.359164509",
            "longitude": "127.105020923"
        },
        {
            "name": "미금역2001아울렛",
            "address": "경기도 성남시 분당구 미금일로154번길 20 (구미동)",
            "latitude": "37.3490444",
            "longitude": "127.1074534"
        },
        {
            "name": "분당서현역AK R",
            "address": "경기도 성남시 분당구 황새울로360번길 42 (서현동)",
            "latitude": "37.38459130415094",
            "longitude": "127.12318293380426"
        },
        {
            "name": "판교역힐스테이트",
            "address": "경기도 성남시 분당구 판교역로 136 (백현동)  판교힐테이트 1092~1095호",
            "latitude": "37.392433302224404",
            "longitude": "127.11094874881172"
        },
        {
            "name": "수내역1번출구",
            "address": "경기도 성남시 분당구 황새울로258번길 41 (수내동)  1~2층",
            "latitude": "37.378515",
            "longitude": "127.11579"
        },
        {
            "name": "HD현대R&D센터",
            "address": "경기도 성남시 분당구 분당수서로 477 (정자동)",
            "latitude": "37.376477723639674",
            "longitude": "127.10430060894165"
        },
        {
            "name": "분당궁내DT",
            "address": "경기도 성남시 분당구 대왕판교로 302 (궁내동)",
            "latitude": "37.370636",
            "longitude": "127.102071"
        },
        {
            "name": "야탑역사거리",
            "address": "경기도 성남시 분당구 야탑로 102 (야탑동)",
            "latitude": "37.4095",
            "longitude": "127.1301"
        },
        {
            "name": "남한산성입구역",
            "address": "경기도 성남시 중원구 산성대로426번길 2 (금광동)",
            "latitude": "37.449705",
            "longitude": "127.159463"
        },
        {
            "name": "단대오거리역",
            "address": "경기도 성남시 중원구 산성대로 340-1 (중앙동)",
            "latitude": "37.4433283",
            "longitude": "127.15457659999993"
        },
        {
            "name": "성남모란DT",
            "address": "경기도 성남시 중원구 둔촌대로 131 (성남동)",
            "latitude": "37.42916075591734",
            "longitude": "127.13344319390397"
        },
        {
            "name": "수원금곡",
            "address": "경기도 수원시 권선구 금곡로 219 (금곡동)",
            "latitude": "37.27491",
            "longitude": "126.954432"
        },
        {
            "name": "수원세류DT",
            "address": "경기도 수원시 권선구 권선로544번길 1 (세류동)",
            "latitude": "37.262923",
            "longitude": "127.011208"
        },
        {
            "name": "수원호매실",
            "address": "경기도 수원시 권선구 서수원로577번길 305 (금곡동, 수원모아미래도센트럴타운2단지)",
            "latitude": "37.274375",
            "longitude": "126.941263"
        },
        {
            "name": "수원권선DT",
            "address": "경기도 수원시 권선구 매송고색로 543 (오목천동)",
            "latitude": "37.246345",
            "longitude": "126.964025"
        },
        {
            "name": "수원권선",
            "address": "경기도 수원시 권선구 동수원로177번길 40 (권선동, 수원아이파크시티8단지)",
            "latitude": "37.246668",
            "longitude": "127.030958"
        },
        {
            "name": "수원이마트",
            "address": "경기도 수원시 권선구 경수대로 270 (권선동) 2층",
            "latitude": "37.25007961039053",
            "longitude": "127.02128059777506"
        },
        {
            "name": "수원세류역DT",
            "address": "경기도 수원시 권선구 경수대로 185 (세류동)",
            "latitude": "37.243791",
            "longitude": "127.017207"
        },
        {
            "name": "타임빌라스수원",
            "address": "경기도 수원시 권선구 세화로 134 (서둔동)",
            "latitude": "37.2648676309542",
            "longitude": "126.998455502179"
        },
        {
            "name": "수원고색동DT",
            "address": "경기도 수원시 권선구 서부로1390번길 150 (고색동)",
            "latitude": "37.239320254017244",
            "longitude": "126.98871882924855"
        },
        {
            "name": "수원탑동DT",
            "address": "경기도 수원시 권선구 서부로 1775 (탑동)",
            "latitude": "37.26711903511241",
            "longitude": "126.9713639327551"
        },
        {
            "name": "수원연무DT",
            "address": "경기도 수원시 장안구 창룡대로 171 (연무동)",
            "latitude": "37.29217464098265",
            "longitude": "127.02887111657206"
        },
        {
            "name": "북수원IC DT",
            "address": "경기도 수원시 장안구 경수대로 1038 (파장동)",
            "latitude": "37.307776",
            "longitude": "126.99833"
        },
        {
            "name": "수원천천",
            "address": "경기도 수원시 장안구 덕영대로535번길 46 (천천동)",
            "latitude": "37.297286",
            "longitude": "126.982671"
        },
        {
            "name": "수원성균관대",
            "address": "경기도 수원시 장안구 서부로 2131, 1층 4,5,6호 2층1,2호 (율전동)",
            "latitude": "37.298935",
            "longitude": "126.971577"
        },
        {
            "name": "스타필드수원6F",
            "address": "경기도 수원시 장안구 수성로 175 (정자동)",
            "latitude": "37.28757355541144",
            "longitude": "126.99155345711115"
        },
        {
            "name": "스타필드수원1F",
            "address": "경기도 수원시 장안구 수성로 175 (정자동)",
            "latitude": "37.28712303932181",
            "longitude": "126.99159861557194"
        },
        {
            "name": "수원정자사거리DT",
            "address": "경기도 수원시 장안구 수성로 291 (정자동)",
            "latitude": "37.2911959629684",
            "longitude": "127.004005026146"
        },
        {
            "name": "수원종합운동장",
            "address": "경기도 수원시 장안구 송원로 71 (송죽동)",
            "latitude": "37.30131994",
            "longitude": "127.00879841"
        },
        {
            "name": "수원조원DT",
            "address": "경기도 수원시 장안구 경수대로 831 (조원동)",
            "latitude": "37.2952372155505",
            "longitude": "127.015769907921"
        },
        {
            "name": "수원경수인계DT",
            "address": "경기도 수원시 팔달구 경수대로 499 (인계동)",
            "latitude": "37.270568",
            "longitude": "127.027566"
        },
        {
            "name": "수원KBS DT",
            "address": "경기도 수원시 팔달구 권광로 265 (인계동)",
            "latitude": "37.271122",
            "longitude": "127.035213"
        },
        {
            "name": "수원인계DT",
            "address": "경기도 수원시 팔달구 인계로94번길 3 (인계동)",
            "latitude": "37.267938",
            "longitude": "127.027948"
        },
        {
            "name": "수원이비스",
            "address": "경기도 수원시 팔달구 권광로 132 (인계동)",
            "latitude": "37.25909912273708",
            "longitude": "127.03115533034979"
        },
        {
            "name": "수원매산",
            "address": "경기도 수원시 팔달구 매산로 11 (매산로1가)",
            "latitude": "37.2673815171216",
            "longitude": "127.002694505473"
        },
        {
            "name": "동수원DT",
            "address": "경기도 수원시 팔달구 중부대로 161 (우만동)",
            "latitude": "37.2781099",
            "longitude": "127.03394960000003"
        },
        {
            "name": "수원인계",
            "address": "경기도 수원시 팔달구 권광로 199 (인계동)",
            "latitude": "37.265499",
            "longitude": "127.032902"
        },
        {
            "name": "아주대",
            "address": "경기도 수원시 팔달구 월드컵로 205 (우만동)",
            "latitude": "37.279696",
            "longitude": "127.04334"
        },
        {
            "name": "수원성빈센트병원",
            "address": "경기도 수원시 팔달구 중부대로 93 (지동)",
            "latitude": "37.27786636322684",
            "longitude": "127.02795232371083"
        },
        {
            "name": "수원화성행궁",
            "address": "경기도 수원시 팔달구 정조로841번길 10 (신풍동)",
            "latitude": "37.283349",
            "longitude": "127.015668"
        },
        {
            "name": "수원나혜석거리",
            "address": "경기도 수원시 팔달구 권광로188번길 17 (인계동)",
            "latitude": "37.264255680068",
            "longitude": "127.034163000188"
        },
        {
            "name": "수원역AK B1",
            "address": "경기도 수원시 팔달구 덕영대로 924 (매산로1가)",
            "latitude": "37.266287",
            "longitude": "127.00071"
        },
        {
            "name": "수원경인일보",
            "address": "경기도 수원시 팔달구 효원로 299 (인계동)",
            "latitude": "37.2614640249992",
            "longitude": "127.03463081706"
        },
        {
            "name": "수원역AK R",
            "address": "경기도 수원시 팔달구 덕영대로 924 (매산로1가)",
            "latitude": "37.2668319123291",
            "longitude": "127.000067643997"
        },
        {
            "name": "시흥대야DT",
            "address": "경기도 시흥시 뱀내장터로 27 (대야동)",
            "latitude": "37.441713",
            "longitude": "126.787757"
        },
        {
            "name": "배곧아브뉴프랑",
            "address": "경기도 시흥시 서울대학로278번길 34 (정왕동)",
            "latitude": "37.36811",
            "longitude": "126.72921"
        },
        {
            "name": "시흥대야동",
            "address": "경기도 시흥시 비둘기공원7길 51 (대야동)",
            "latitude": "37.441740",
            "longitude": "126.791869"
        },
        {
            "name": "배곧신도시",
            "address": "경기도 시흥시 서울대학로278번길 43-13 (정왕동)",
            "latitude": "37.36926945415259",
            "longitude": "126.73036074295075"
        },
        {
            "name": "시흥대야",
            "address": "경기도 시흥시 비둘기공원로 10 (대야동)",
            "latitude": "37.44399411513034",
            "longitude": "126.79092058987953"
        },
        {
            "name": "시흥P.아울렛 3F",
            "address": "경기도 시흥시 서해안로 699 (정왕동)",
            "latitude": "37.3799059122297",
            "longitude": "126.73630400558947"
        },
        {
            "name": "시흥P.아울렛 1F",
            "address": "경기도 시흥시 서해안로 699 (정왕동)",
            "latitude": "37.37931238616435",
            "longitude": "126.73580928923205"
        },
        {
            "name": "시화로데오",
            "address": "경기도 시흥시 중심상가2길 20-5 (정왕동)",
            "latitude": "37.344630634101044",
            "longitude": "126.73724279219881"
        },
        {
            "name": "시흥월곶",
            "address": "경기도 시흥시 월곶중앙로58번길 5-6 (월곶동)",
            "latitude": "37.389462",
            "longitude": "126.73886"
        },
        {
            "name": "물왕호수",
            "address": "경기도 시흥시 동서로857번길 6 (물왕동)",
            "latitude": "37.382917",
            "longitude": "126.840701"
        },
        {
            "name": "시흥장현",
            "address": "경기도 시흥시 황고개로 530 (장곡동)",
            "latitude": "37.3782498",
            "longitude": "126.7890783"
        },
        {
            "name": "시흥능곡역",
            "address": "경기도 시흥시 장현능곡로 155 (능곡동)",
            "latitude": "37.37064104024727",
            "longitude": "126.80749692444117"
        },
        {
            "name": "시흥목감DT",
            "address": "경기도 시흥시 동서로 950 (조남동)",
            "latitude": "37.377964858130205",
            "longitude": "126.85001554142049"
        },
        {
            "name": "시흥은계",
            "address": "경기도 시흥시 은계번영길 9 (은행동)",
            "latitude": "37.43758361943802",
            "longitude": "126.8014978492903"
        },
        {
            "name": "안산고잔센트럴타워",
            "address": "경기도 안산시 단원구 고잔로 72 (고잔동)",
            "latitude": "37.31905063872096",
            "longitude": "126.83445383032479"
        },
        {
            "name": "안산상공회의소",
            "address": "경기도 안산시 단원구 적금로 120 (고잔동)",
            "latitude": "37.318601652961206",
            "longitude": "126.82609788533867"
        },
        {
            "name": "고잔이마트",
            "address": "경기도 안산시 단원구 원포공원1로 46 (초지동) 이마트",
            "latitude": "37.303062006685224",
            "longitude": "126.8119780385466"
        },
        {
            "name": "안산문화광장",
            "address": "경기도 안산시 단원구 광덕대로 154, ,771-4 로데오타운1층 (고잔동)",
            "latitude": "37.30993328883379",
            "longitude": "126.83046363347107"
        },
        {
            "name": "안산중앙",
            "address": "경기도 안산시 단원구 고잔로 102, 스타타워 1층 (고잔동)",
            "latitude": "37.318631543239576",
            "longitude": "126.83762209223218"
        },
        {
            "name": "안산중앙역",
            "address": "경기도 안산시 단원구 중앙대로 907 (고잔동)",
            "latitude": "37.317081782690096",
            "longitude": "126.83763388713413"
        },
        {
            "name": "안산트레이더스",
            "address": "경기도 안산시 단원구 중앙대로 397 (신길동)",
            "latitude": "37.33083975339962",
            "longitude": "126.78489040336497"
        },
        {
            "name": "대부도DT",
            "address": "경기도 안산시 단원구 대선로 35 (대부북동)",
            "latitude": "37.26842580152328",
            "longitude": "126.57015106385668"
        },
        {
            "name": "안산물의광장",
            "address": "경기도 안산시 단원구 광덕대로 187 (고잔동)",
            "latitude": "37.31320948847559",
            "longitude": "126.8295509836967"
        },
        {
            "name": "안성석정DT",
            "address": "경기도 안성시 중앙로 308 (석정동)",
            "latitude": "37.010463177925295",
            "longitude": "127.26208837463214"
        },
        {
            "name": "안성공도DT",
            "address": "경기도 안성시 공도읍 서동대로 4489",
            "latitude": "37.009411",
            "longitude": "127.200801"
        },
        {
            "name": "안성서동대로DT",
            "address": "경기도 안성시 공도읍 서동대로 4314 서동대로 4314",
            "latitude": "37.0048167672848",
            "longitude": "127.182089433237"
        },
        {
            "name": "안성계동DT",
            "address": "경기도 안성시 안성맞춤대로 805 (계동)",
            "latitude": "36.9860648687646",
            "longitude": "127.26783707510753"
        },
        {
            "name": "스타필드안성R",
            "address": "경기도 안성시 공도읍 서동대로 3930-39",
            "latitude": "36.9939948",
            "longitude": "127.146598"
        },
        {
            "name": "호계지식산업센터",
            "address": "경기도 안양시 동안구 엘에스로 122 (호계동) 118~123호",
            "latitude": "37.3725193",
            "longitude": "126.9487254"
        },
        {
            "name": "평촌역DT",
            "address": "경기도 안양시 동안구 시민대로 373 (관양동)",
            "latitude": "37.396509",
            "longitude": "126.971235"
        },
        {
            "name": "안양범계",
            "address": "경기도 안양시 동안구 시민대로 206 (호계동)",
            "latitude": "37.3916919774004",
            "longitude": "126.953778645045"
        },
        {
            "name": "안양운동장사거리DT",
            "address": "경기도 안양시 동안구 관악대로 234 (비산동)",
            "latitude": "37.40111",
            "longitude": "126.949208"
        },
        {
            "name": "범계역",
            "address": "경기도 안양시 동안구 시민대로 180 (호계동)",
            "latitude": "37.389849",
            "longitude": "126.949818"
        },
        {
            "name": "안양호계DT",
            "address": "경기도 안양시 동안구 엘에스로 27 (호계동)",
            "latitude": "37.366561",
            "longitude": "126.956011"
        },
        {
            "name": "평촌호계",
            "address": "경기도 안양시 동안구 평촌대로 123 (호계동)",
            "latitude": "37.38308987215936",
            "longitude": "126.9598478484914"
        },
        {
            "name": "평촌역사거리",
            "address": "경기도 안양시 동안구 시민대로 311 금강스마트 빌딩 1층(관양동1746)",
            "latitude": "37.39594913421712",
            "longitude": "126.96509237874383"
        },
        {
            "name": "안양비산DT",
            "address": "경기도 안양시 동안구 경수대로 821 (비산동)",
            "latitude": "37.3925432775419",
            "longitude": "126.942881814476"
        },
        {
            "name": "평촌아크로",
            "address": "경기도 안양시 동안구 시민대로 230, 평촌아크로타워상가동 2층 8호 (관양동)",
            "latitude": "37.39254935682436",
            "longitude": "126.95629686455613"
        },
        {
            "name": "범계로데오",
            "address": "경기도 안양시 동안구 평촌대로 223 (호계동)",
            "latitude": "37.391494",
            "longitude": "126.955122"
        },
        {
            "name": "인덕원역",
            "address": "경기도 안양시 동안구 흥안대로 519, 아이퍼스트타워 1~2층 (관양동)",
            "latitude": "37.40026330315309",
            "longitude": "126.9763137476872"
        },
        {
            "name": "안양덕현DT",
            "address": "경기도 안양시 동안구 흥안대로 139 (호계동)",
            "latitude": "37.3713017997558",
            "longitude": "126.960219576803"
        },
        {
            "name": "평촌트리지아",
            "address": "경기도 안양시 동안구 귀인로 110 (호계동, 평촌트리지아아파트 2단지)",
            "latitude": "37.38279",
            "longitude": "126.952498"
        },
        {
            "name": "평촌한림대병원",
            "address": "경기도 안양시 동안구 관평로170번길 33 (관양동)",
            "latitude": "37.392812684079196",
            "longitude": "126.96218875037164"
        },
        {
            "name": "안양이마트",
            "address": "경기도 안양시 동안구 관악대로 104 (비산동)",
            "latitude": "37.398521",
            "longitude": "126.935224"
        },
        {
            "name": "안양역R",
            "address": "경기도 안양시 만안구 만안로 232 (안양동) 안양민자역사 1층 001호",
            "latitude": "37.401964",
            "longitude": "126.922661"
        },
        {
            "name": "명학역",
            "address": "경기도 안양시 만안구 안양로 96 128,129,130,132,133,134,135,136호",
            "latitude": "37.3837071172439",
            "longitude": "126.93468729534386"
        },
        {
            "name": "안양역",
            "address": "경기도 안양시 만안구 장내로 149번길 (안양동)53",
            "latitude": "37.4002845",
            "longitude": "126.92216770000004"
        },
        {
            "name": "안양석수DT",
            "address": "경기도 안양시 만안구 경수대로 1397 (석수동)",
            "latitude": "37.4312614",
            "longitude": "126.9033382"
        },
        {
            "name": "안양일번가",
            "address": "경기도 안양시 만안구 안양로292번길 36 (안양동)",
            "latitude": "37.39919046",
            "longitude": "126.9236856"
        },
        {
            "name": "양주옥정타운",
            "address": "경기도 양주시 회천남로 76 (옥정동)",
            "latitude": "37.81844494596487",
            "longitude": "127.09396234642375"
        },
        {
            "name": "양주송추DT",
            "address": "경기도 양주시 장흥면 호국로 528",
            "latitude": "37.717529",
            "longitude": "126.973093"
        },
        {
            "name": "양주덕정역DT",
            "address": "경기도 양주시 독바위로 35 (덕정동)",
            "latitude": "37.83821453673251",
            "longitude": "127.06297637407076"
        },
        {
            "name": "양주고읍DT",
            "address": "경기도 양주시 고덕로351 (고읍동)",
            "latitude": "37.8035448078233",
            "longitude": "127.079391925805"
        },
        {
            "name": "양주광사DT",
            "address": "경기도 양주시 부흥로 1872 (광사동)",
            "latitude": "37.7907464236245",
            "longitude": "127.072790578691"
        },
        {
            "name": "양주고읍",
            "address": "경기도 양주시 고읍남로 20 (광사동)",
            "latitude": "37.79460292264882",
            "longitude": "127.07917798915788"
        },
        {
            "name": "가나아트파크",
            "address": "경기도 양주시 장흥면 권율로 117",
            "latitude": "37.7263808",
            "longitude": "126.9500801"
        },
        {
            "name": "양주옥정공원",
            "address": "경기도 양주시 옥정동로7길 30 (옥정동)",
            "latitude": "37.8212148140616",
            "longitude": "127.09744134144607"
        },
        {
            "name": "양주회정DT",
            "address": "경기도 양주시 평화로 1687 (회정동)",
            "latitude": "37.83958361508239",
            "longitude": "127.0547041749784"
        },
        {
            "name": "연천전곡DT",
            "address": "경기도 연천군 전곡읍 평화로 452",
            "latitude": "38.01188568455483",
            "longitude": "127.06873283590522"
        },
        {
            "name": "북오산IC DT",
            "address": "경기도 오산시 문시로 109-2 (외삼미동)",
            "latitude": "37.189809",
            "longitude": "127.058997"
        },
        {
            "name": "오산세교",
            "address": "경기도 오산시 수청로 193 (금암동)",
            "latitude": "37.176779",
            "longitude": "127.045583"
        },
        {
            "name": "오산갈곶DT",
            "address": "경기도 오산시 경기대로 50, B동 (갈곶동)",
            "latitude": "37.129185998855284",
            "longitude": "127.07131092131328"
        },
        {
            "name": "오산IC DT",
            "address": "경기도 오산시 원동로 74 (원동)",
            "latitude": "37.14269620513025",
            "longitude": "127.07685288946868"
        },
        {
            "name": "오산시청",
            "address": "경기도 오산시 운천로 61",
            "latitude": "37.1486248",
            "longitude": "127.0741288"
        },
        {
            "name": "오산부산동DT",
            "address": "경기도 오산시 경기동로 185 (부산동)",
            "latitude": "37.15899425341184",
            "longitude": "127.09242788878642"
        },
        {
            "name": "오산원동DT",
            "address": "경기도 오산시 경기대로 218 (원동)",
            "latitude": "37.1441810626901",
            "longitude": "127.073876453349"
        },
        {
            "name": "서동탄DT",
            "address": "경기도 오산시 외삼미로 162-48 (외삼미동)",
            "latitude": "37.197476",
            "longitude": "127.065097"
        },
        {
            "name": "오산수청DT",
            "address": "경기도 오산시 경기대로 445 (수청동)",
            "latitude": "37.16298068889096",
            "longitude": "127.0666928732513"
        },
        {
            "name": "용인세브란스병원",
            "address": "경기도 용인시 기흥구 동백죽전대로 363 (중동)",
            "latitude": "37.271092",
            "longitude": "127.147639"
        },
        {
            "name": "용인상하DT",
            "address": "경기도 용인시 기흥구 중부대로 771 (상하동)",
            "latitude": "37.259778",
            "longitude": "127.142453"
        },
        {
            "name": "용인언남",
            "address": "경기도 용인시 기흥구 구성로 120 (언남동)",
            "latitude": "37.29262880835632",
            "longitude": "127.12206858068447"
        },
        {
            "name": "기흥역AK R",
            "address": "경기도 용인시 기흥구 기흥역로 63 (구갈동, 기흥역 힐스테이트)",
            "latitude": "37.2746544",
            "longitude": "127.1165616"
        },
        {
            "name": "용인고매동",
            "address": "경기도 용인시 기흥구 신고매로 59 (고매동) 리빙파워센터 지하1층",
            "latitude": "37.22317532265088",
            "longitude": "127.1141622136813"
        },
        {
            "name": "용인보라DT",
            "address": "경기도 용인시 기흥구 용구대로 1877 (보라동)",
            "latitude": "37.255575",
            "longitude": "127.104577"
        },
        {
            "name": "용인동백DT",
            "address": "경기도 용인시 기흥구 어정로 102 (상하동)",
            "latitude": "37.274595",
            "longitude": "127.141221"
        },
        {
            "name": "용인마북DT",
            "address": "경기도 용인시 기흥구 용구대로 2330",
            "latitude": "37.2947324",
            "longitude": "127.11029259999998"
        },
        {
            "name": "용인기흥구청",
            "address": "경기도 용인시 기흥구 구갈로 71-18 (신갈동)",
            "latitude": "37.2808075",
            "longitude": "127.1108768"
        },
        {
            "name": "수원IC DT",
            "address": "경기도 용인시 기흥구 중부대로 56",
            "latitude": "37.2672407380298",
            "longitude": "127.074871029992"
        },
        {
            "name": "용인보정",
            "address": "경기도 용인시 기흥구 죽전로 20, 죽전누리에뜰상가 (보정동)",
            "latitude": "37.320017",
            "longitude": "127.11084"
        },
        {
            "name": "구성트레이더스",
            "address": "경기도 용인시 기흥구 용구대로 2457 (보정동)",
            "latitude": "37.305434",
            "longitude": "127.105468"
        },
        {
            "name": "강남대",
            "address": "경기도 용인시 기흥구 강남로 3, 강남&플러스 1층(구갈동)",
            "latitude": "37.2710542",
            "longitude": "127.1259993"
        },
        {
            "name": "용인하갈DT",
            "address": "경기도 용인시 기흥구 덕영대로 1800 (하갈동)",
            "latitude": "37.2492977286623",
            "longitude": "127.087735450111"
        },
        {
            "name": "용인흥덕DT",
            "address": "경기도 용인시 기흥구 흥덕1로 85 (영덕동)",
            "latitude": "37.274840655549575",
            "longitude": "127.07182016022024"
        },
        {
            "name": "삼성디스플레이SDR",
            "address": "경기도 용인시 기흥구 삼성로 1 (농서동)",
            "latitude": "37.225417",
            "longitude": "127.087317"
        },
        {
            "name": "기흥테라타워",
            "address": "경기도 용인시 기흥구 서천로201번길 11 (농서동) 125, 126, 127, 128호",
            "latitude": "37.230764",
            "longitude": "127.071"
        },
        {
            "name": "용인보정DT",
            "address": "경기도 용인시 기흥구 용구대로2469번길 165 (보정동)",
            "latitude": "37.321478238",
            "longitude": "127.104160923"
        },
        {
            "name": "한국민속촌DT",
            "address": "경기도 용인시 기흥구 사은로 110 (보라동)",
            "latitude": "37.255933",
            "longitude": "127.116911"
        },
        {
            "name": "동백이마트",
            "address": "경기도 용인시 기흥구 동백죽전대로 444 (중동)",
            "latitude": "37.2781451",
            "longitude": "127.1514253"
        },
        {
            "name": "용인신갈DT",
            "address": "경기도 용인시 기흥구 중부대로 395 (신갈동)",
            "latitude": "37.27277694332577",
            "longitude": "127.11031628466871"
        },
        {
            "name": "용인김량장DT",
            "address": "경기도 용인시 처인구 백옥대로 1174 (김량장동)",
            "latitude": "37.239640424",
            "longitude": "127.21056759"
        },
        {
            "name": "용인에버랜드",
            "address": "경기도 용인시 처인구 포곡읍 에버랜드로 199",
            "latitude": "37.294988424",
            "longitude": "127.203199216"
        },
        {
            "name": "용인시청DT",
            "address": "경기도 용인시 처인구 중부대로 1130",
            "latitude": "37.24029",
            "longitude": "127.170935"
        },
        {
            "name": "용인처인구청",
            "address": "경기도 용인시 처인구 금령로 60 (김량장동)",
            "latitude": "37.234764",
            "longitude": "127.202928"
        },
        {
            "name": "용인양지IC DT",
            "address": "경기도 용인시 처인구 양지면 중부대로 2258",
            "latitude": "37.23332323108787",
            "longitude": "127.2917092047991"
        },
        {
            "name": "용인한숲시티",
            "address": "경기도 용인시 처인구 남사읍 처인성로 729",
            "latitude": "37.152464",
            "longitude": "127.173575"
        },
        {
            "name": "용인남동DT",
            "address": "경기도 용인시 처인구 백옥대로 953 (남동)",
            "latitude": "37.2211071966979",
            "longitude": "127.209029807878"
        },
        {
            "name": "용인마평DT",
            "address": "경기도 용인시 처인구 금령로 188 (마평동)",
            "latitude": "37.2336627",
            "longitude": "127.2168107"
        },
        {
            "name": "용인처인휴게소",
            "address": "경기도 용인시 처인구 모현읍 곡현로619번길 36",
            "latitude": "37.340406",
            "longitude": "127.219305"
        },
        {
            "name": "용인역북",
            "address": "경기도 용인시 처인구 명지로 41 (역북동)",
            "latitude": "37.232254",
            "longitude": "127.188747"
        },
        {
            "name": "용인고림DT",
            "address": "경기도 용인시 처인구 고림로 124 (고림동)",
            "latitude": "37.243914",
            "longitude": "127.217972"
        },
        {
            "name": "용인모현DT",
            "address": "경기도 용인시 처인구 모현읍 백옥대로 2529",
            "latitude": "37.349014",
            "longitude": "127.249316"
        },
        {
            "name": "용인IC DT",
            "address": "경기도 용인시 처인구 백옥대로 1305 (유방동)",
            "latitude": "37.25140976",
            "longitude": "127.212133287"
        },
        {
            "name": "의왕청계DT",
            "address": "경기도 의왕시 안양판교로 246 (청계동)",
            "latitude": "37.3883721704744",
            "longitude": "126.998385219178"
        },
        {
            "name": "의왕포일",
            "address": "경기도 의왕시 안양판교로 89 (포일동)",
            "latitude": "37.3960433533346",
            "longitude": "126.98435027585213"
        },
        {
            "name": "의왕현대모비스",
            "address": "경기도 의왕시 철도박물관로 37 (삼동)",
            "latitude": "37.32469579167545",
            "longitude": "126.95196981011368"
        },
        {
            "name": "의왕내손",
            "address": "경기도 의왕시 내손중앙로 4 (내손동)  벨포레스퀘어 G111~116호",
            "latitude": "37.389126752962",
            "longitude": "126.976737889453"
        },
        {
            "name": "의왕롯데몰",
            "address": "경기도 의왕시 바라산로 1 (학의동), GF층 일부",
            "latitude": "37.37526646974715",
            "longitude": "127.00863136446662"
        },
        {
            "name": "의왕삼동DT",
            "address": "경기도 의왕시 덕영대로 182 (삼동)",
            "latitude": "37.316653",
            "longitude": "126.957363"
        },
        {
            "name": "의정부예술의전당DT",
            "address": "경기도 의정부시 경의로 31 (의정부동)",
            "latitude": "37.7330525",
            "longitude": "127.0388483"
        },
        {
            "name": "의정부신곡DT",
            "address": "경기도 의정부시 회룡로 269 (신곡동)",
            "latitude": "37.726826",
            "longitude": "127.064015"
        },
        {
            "name": "의정부용현DT",
            "address": "경기도 의정부시 시민로 468 (용현동)",
            "latitude": "37.73038983553",
            "longitude": "127.084245521194"
        },
        {
            "name": "의정부공원",
            "address": "경기도 의정부시 평화로 540 (의정부동)",
            "latitude": "37.740103",
            "longitude": "127.047531"
        },
        {
            "name": "의정부민락",
            "address": "경기도 의정부시 천보로 68 (민락동)",
            "latitude": "37.7454512032732",
            "longitude": "127.093963593616"
        },
        {
            "name": "의정부회룡역DT",
            "address": "경기도 의정부시 평화로 341 (호원동)",
            "latitude": "37.722373",
            "longitude": "127.047477"
        },
        {
            "name": "의정부녹양DT",
            "address": "경기도 의정부시 비우로 119 (가능동)",
            "latitude": "37.758477",
            "longitude": "127.040289"
        },
        {
            "name": "의정부금오",
            "address": "경기도 의정부시 청사로48번길 7, 대송프라자 (금오동)",
            "latitude": "37.7530086961915",
            "longitude": "127.070461426623"
        },
        {
            "name": "신세계의정부2F",
            "address": "경기도 의정부시 평화로 525, 신세계백화점 2층 (의정부동)",
            "latitude": "37.73828755664889",
            "longitude": "127.04635329209178"
        },
        {
            "name": "신세계의정부6F",
            "address": "경기도 의정부시 평화로 525, 신세계백화점 6층 (의정부동)",
            "latitude": "37.737483674150624",
            "longitude": "127.04575717895149"
        },
        {
            "name": "의정부송산역DT",
            "address": "경기도 의정부시 충의로 95 (용현동)",
            "latitude": "37.740164230224",
            "longitude": "127.085685890206"
        },
        {
            "name": "의정부민락타운",
            "address": "경기도 의정부시 오목로 196 (민락동)",
            "latitude": "37.744429",
            "longitude": "127.098713"
        },
        {
            "name": "의정부장암DT",
            "address": "경기도 의정부시 동일로 114 (장암동)",
            "latitude": "37.69925",
            "longitude": "127.05465"
        },
        {
            "name": "의정부이마트",
            "address": "경기도 의정부시 민락로 210 (민락동)",
            "latitude": "37.7432268",
            "longitude": "127.1025002"
        },
        {
            "name": "이천증포DT",
            "address": "경기도 이천시 이섭대천로 1445 (증포동)",
            "latitude": "37.29660399999999",
            "longitude": "127.45729200000005"
        },
        {
            "name": "이천사음DT",
            "address": "경기도 이천시 경충대로 3045 (사음동)",
            "latitude": "37.299106",
            "longitude": "127.407841"
        },
        {
            "name": "이천하이닉스",
            "address": "경기도 이천시 부발읍 경충대로 2100 외 101호, 102호, 201호",
            "latitude": "37.25251",
            "longitude": "127.489933"
        },
        {
            "name": "이천터미널",
            "address": "경기도 이천시 중리천로 84 (중리동)",
            "latitude": "37.278191",
            "longitude": "127.446323"
        },
        {
            "name": "이천IC DT",
            "address": "경기도 이천시 부발읍 경충대로 2183 신하리 547외 6필지(547, 548-2, 3, 4, 5, 550-7,8)",
            "latitude": "37.2579899398962",
            "longitude": "127.48292859491756"
        },
        {
            "name": "이천마장DT",
            "address": "경기도 이천시 마장면 중부대로 121-4",
            "latitude": "37.2563624",
            "longitude": "127.3498181"
        },
        {
            "name": "이천송정DT",
            "address": "경기도 이천시 증신로 285 (송정동)",
            "latitude": "37.296100682031",
            "longitude": "127.439629554001"
        },
        {
            "name": "포천DT",
            "address": "경기도 포천시 호국로 925 (선단동)",
            "latitude": "37.84842935479925",
            "longitude": "127.16181992045676"
        },
        {
            "name": "광릉수목원",
            "address": "경기도 포천시 소흘읍 죽엽산로 655",
            "latitude": "37.7765034236257",
            "longitude": "127.165247073124"
        },
        {
            "name": "포천호국로DT",
            "address": "경기도 포천시 소흘읍 호국로 246",
            "latitude": "37.79653392162362",
            "longitude": "127.12724157214106"
        },
        {
            "name": "포천내촌DT",
            "address": "경기도 포천시 내촌면 금강로 2064 (내촌면)",
            "latitude": "37.7632407781611",
            "longitude": "127.225236251822"
        },
        {
            "name": "하남미사DT",
            "address": "경기도 하남시 미사강변남로 35 (망월동)",
            "latitude": "37.55997203406607",
            "longitude": "127.1857908767236"
        },
        {
            "name": "하남황산사거리",
            "address": "경기도 하남시 조정대로 65 (풍산동)",
            "latitude": "37.55078301",
            "longitude": "127.18603343"
        },
        {
            "name": "스타필드위례1FR",
            "address": "경기도 하남시 위례대로 200 (학암동)",
            "latitude": "37.48041",
            "longitude": "127.14814"
        },
        {
            "name": "미사역효성",
            "address": "경기도 하남시 아리수로 570 (망월동)",
            "latitude": "37.56724938447274",
            "longitude": "127.19030829457851"
        },
        {
            "name": "하남덕풍",
            "address": "경기도 하남시 덕풍동로 123 (덕풍동)",
            "latitude": "37.55215262070143",
            "longitude": "127.20928781667027"
        },
        {
            "name": "하남미사",
            "address": "경기도 하남시 미사강변북로30번길 130 (망월동)",
            "latitude": "37.56961189042407",
            "longitude": "127.1834150926398"
        },
        {
            "name": "스타필드하남1F(티바나)",
            "address": "경기도 하남시 미사대로 750 (신장동)",
            "latitude": "37.54477874715479",
            "longitude": "127.2236041950884"
        },
        {
            "name": "신세계하남2F",
            "address": "경기도 하남시 미사대로 750 (신장동)",
            "latitude": "37.545993831702795",
            "longitude": "127.22188498102277"
        },
        {
            "name": "스타필드하남2FR",
            "address": "경기도 하남시 미사대로 750 (신장동)",
            "latitude": "37.545214483818086",
            "longitude": "127.22426181100775"
        },
        {
            "name": "하남시청",
            "address": "경기도 하남시 대청로 34 (신장동)",
            "latitude": "37.54058517543721",
            "longitude": "127.21603603472239"
        },
        {
            "name": "하남시청역",
            "address": "경기도 하남시 하남대로 808 (신장동)",
            "latitude": "37.5414173926204",
            "longitude": "127.20802671231"
        },
        {
            "name": "하남풍산역",
            "address": "경기도 하남시 덕풍서로 80 (덕풍동) 빌리브하남 101~106호",
            "latitude": "37.55355158819783",
            "longitude": "127.20534208530016"
        },
        {
            "name": "하남감일",
            "address": "경기도 하남시 감일백제로 169 (감이동) 현대타워, 1층 105~111호",
            "latitude": "37.50741144793323",
            "longitude": "127.15510073391985"
        },
        {
            "name": "미사역그랑파사쥬",
            "address": "경기도 하남시 미사강변동로 95 (망월동) 미사역 그랑파사쥬 1층 1056~1059호",
            "latitude": "37.56421331111887",
            "longitude": "127.19152864407452"
        },
        {
            "name": "미사역파라곤스퀘어",
            "address": "경기도 하남시 미사강변동로 100 (망월동), 미사역 파라곤스퀘어 1층 1011~1016호",
            "latitude": "37.56431706804952",
            "longitude": "127.19282489639798"
        },
        {
            "name": "화성시청",
            "address": "경기도 화성시 남양읍 시청로 113",
            "latitude": "37.20087822769405",
            "longitude": "126.8260472922631"
        },
        {
            "name": "화성봉담",
            "address": "경기도 화성시 봉담읍 동화길 51",
            "latitude": "37.2186558750552",
            "longitude": "126.95538618707329"
        },
        {
            "name": "화성향남",
            "address": "경기도 화성시 향남읍 발안로 111",
            "latitude": "37.131572",
            "longitude": "126.922767"
        },
        {
            "name": "동탄카림",
            "address": "경기도 화성시 동탄대로시범길 134 (청계동, 시범 반도유보라 아이비파크4.0)",
            "latitude": "37.19921081770612",
            "longitude": "127.11294627624394"
        },
        {
            "name": "동탄능동DT",
            "address": "경기도 화성시 동탄지성로 201 (능동)",
            "latitude": "37.212139",
            "longitude": "127.053557"
        },
        {
            "name": "동탄역",
            "address": "경기도 화성시 동탄대로 495 (오산동)",
            "latitude": "37.19779562354546",
            "longitude": "127.0984027054538"
        },
        {
            "name": "화성병점DT",
            "address": "경기도 화성시 효행로 1015 (진안동)",
            "latitude": "37.212704",
            "longitude": "127.038292"
        },
        {
            "name": "동탄영천",
            "address": "경기도 화성시 동탄순환대로 692 (영천동)",
            "latitude": "37.2067360762558",
            "longitude": "127.11138038332655"
        },
        {
            "name": "신영통DT",
            "address": "경기도 화성시 영통로 43 (반월동)",
            "latitude": "37.234379",
            "longitude": "127.062955"
        },
        {
            "name": "동탄센트럴파크",
            "address": "경기도 화성시 동탄지성로 104 센트럴파티오",
            "latitude": "37.2082443",
            "longitude": "127.0638898"
        },
        {
            "name": "동탄",
            "address": "경기도 화성시 메타폴리스로 54 (반송동, 동탄파라곤II) 1층",
            "latitude": "37.201742",
            "longitude": "127.072973"
        },
        {
            "name": "동탄광장",
            "address": "경기도 화성시 동탄지성로 17, 풍성 위버폴리스  (반송동)",
            "latitude": "37.205275",
            "longitude": "127.07186"
        },
        {
            "name": "동탄이마트",
            "address": "경기도 화성시 동탄중앙로 376, 동탄이마트 1층 (석우동)",
            "latitude": "37.21417",
            "longitude": "127.079398"
        },
        {
            "name": "송산마도IC DT",
            "address": "경기도 화성시 마도면 화성로 803 두곡리 312-4, 312-5",
            "latitude": "37.20721733691775",
            "longitude": "126.77769416965662"
        },
        {
            "name": "동탄북광장",
            "address": "경기도 화성시 동탄원천로 153 (반송동), 1층 일부",
            "latitude": "37.206887",
            "longitude": "127.074505"
        },
        {
            "name": "동탄산단DT",
            "address": "경기도 화성시 동탄산단2길 7-36 (방교동)",
            "latitude": "37.16444559525663",
            "longitude": "127.08653493054737"
        },
        {
            "name": "동탄라크몽",
            "address": "경기도 화성시 동탄대로5길 21 (송동) 라크몽",
            "latitude": "37.16724647044769",
            "longitude": "127.10500600289995"
        },
        {
            "name": "화성봉담2지구",
            "address": "경기도 화성시 봉담읍 상리2길 41",
            "latitude": "37.22345976347896",
            "longitude": "126.94756086840334"
        },
        {
            "name": "화성남양DT",
            "address": "경기도 화성시 남양읍 시청로32번길 6",
            "latitude": "37.2069639382399",
            "longitude": "126.819198917853"
        },
        {
            "name": "화성봉담DT",
            "address": "경기도 화성시 효행로 219 (기안동)",
            "latitude": "37.22832461050121",
            "longitude": "126.97157862066765"
        },
        {
            "name": "동탄목동",
            "address": "경기도 화성시 동탄순환대로20길 124 (목동)",
            "latitude": "37.1825",
            "longitude": "127.12466"
        },
        {
            "name": "화성반월DT",
            "address": "경기도 화성시 효행로 1241 (반월동)",
            "latitude": "37.220273",
            "longitude": "127.058281"
        },
        {
            "name": "동탄여울공원",
            "address": "경기도 화성시 동탄기흥로 447-30 (오산동)",
            "latitude": "37.20125564665495",
            "longitude": "127.08991959567788"
        },
        {
            "name": "화성보통저수지",
            "address": "경기도 화성시 정남면 세자로 293 단독 건물",
            "latitude": "37.1924950796762",
            "longitude": "126.9784870007"
        },
        {
            "name": "삼성전자DSR",
            "address": "경기도 화성시 삼성전자로 1 (반월동), DSR동 B-C타워 로비 1층",
            "latitude": "37.226129",
            "longitude": "127.070494"
        },
        {
            "name": "동탄트레이더스",
            "address": "경기도 화성시 동탄대로 451 (오산동)",
            "latitude": "37.19340616742762",
            "longitude": "127.09728759646569"
        },
        {
            "name": "동탄신리천공원",
            "address": "경기도 화성시 동탄신리천로 264 (오산동)",
            "latitude": "37.18381931548709",
            "longitude": "127.10731223960644"
        },
        {
            "name": "화성향남DT",
            "address": "경기도 화성시 향남읍 삼천병마로 213",
            "latitude": "37.131948556839525",
            "longitude": "126.91000210775723"
        },
        {
            "name": "송산그린시티",
            "address": "경기도 화성시 수노을중앙로 136 (새솔동)",
            "latitude": "37.284793",
            "longitude": "126.818368"
        },
        {
            "name": "동탄타임테라스",
            "address": "경기도 화성시 동탄중앙로 220 (반송동, 메타폴리스)",
            "latitude": "37.204292",
            "longitude": "127.069308"
        },
        {
            "name": "동탄IX타워",
            "address": "경기도 화성시 동탄첨단산업1로 27 (영천동) 동탄금강펜테리움IX타워 M8~M11호",
            "latitude": "37.21111373899295",
            "longitude": "127.08912861119589"
        },
        {
            "name": "동탄역롯데R",
            "address": "경기도 화성시 동탄역로 160 롯데백화점 동탄점",
            "latitude": "37.199829040652936",
            "longitude": "127.09652425307661"
        },
        {
            "name": "화성안녕DT",
            "address": "경기도 화성시 효행로 751 (안녕동)",
            "latitude": "37.2026342484652",
            "longitude": "127.012915698922"
        },
        {
            "name": "동탄디엠시티",
            "address": "경기도 화성시 동탄대로 636-14 (영천동, 동탄역 대방디엠시티 더 센텀)",
            "latitude": "37.209675052899826",
            "longitude": "127.09951369757151"
        },
        {
            "name": "화성향남2지구",
            "address": "경기도 화성시 향남읍 발안양감로 187 발안양감로 187 센트럴프라자1동 108호,204호",
            "latitude": "37.1163585032065",
            "longitude": "126.91078567528949"
        },
        {
            "name": "남양화성로DT",
            "address": "경기도 화성시 남양읍 화성로 1166 화성로 1166",
            "latitude": "37.21105630237535",
            "longitude": "126.81320358546414"
        },
        {
            "name": "화성향남발안DT",
            "address": "경기도 화성시 향남읍 발안로 308",
            "latitude": "37.1334903068842",
            "longitude": "126.941212522437"
        },
        {
            "name": "동탄호수공원",
            "address": "경기도 화성시 동탄대로 181 (송동)",
            "latitude": "37.17215165644",
            "longitude": "127.10620071092708"
        },
        {
            "name": "삼송역",
            "address": "경기도 고양시 덕양구 동송로 70 (삼송동)",
            "latitude": "37.65226186576663",
            "longitude": "126.89623844379987"
        },
        {
            "name": "원흥역",
            "address": "경기도 고양시 덕양구 원흥5로 25 (원흥동)",
            "latitude": "37.64941846846435",
            "longitude": "126.87668693504605"
        },
        {
            "name": "스타필드고양3F",
            "address": "경기도 고양시 덕양구 고양대로 1955 (동산동)",
            "latitude": "37.647216",
            "longitude": "126.895577"
        },
        {
            "name": "스타필드고양1FR",
            "address": "경기도 고양시 덕양구 고양대로 1955 (동산동)",
            "latitude": "37.64697",
            "longitude": "126.895523"
        },
        {
            "name": "고양삼송",
            "address": "경기도 고양시 덕양구 신원동 628-2",
            "latitude": "37.66367284776591",
            "longitude": "126.8912923843844"
        },
        {
            "name": "고양DT",
            "address": "경기도 고양시 덕양구 호국로 1775 (고양동)",
            "latitude": "37.7095394",
            "longitude": "126.90529470000001"
        },
        {
            "name": "행신역",
            "address": "경기도 고양시 덕양구 충장로 14 (행신동)",
            "latitude": "37.61411330095322",
            "longitude": "126.83433142731232"
        },
        {
            "name": "원당DT",
            "address": "경기도 고양시 덕양구 호국로 811 (주교동)",
            "latitude": "37.658155",
            "longitude": "126.837639"
        },
        {
            "name": "화정",
            "address": "경기도 고양시 덕양구 화신로272번길 57 (화정동)",
            "latitude": "37.63353224",
            "longitude": "126.8314538"
        },
        {
            "name": "화정역",
            "address": "경기도 고양시 덕양구 화신로260번길 57 (화정동)",
            "latitude": "37.633450960563216",
            "longitude": "126.83290635099"
        },
        {
            "name": "고양덕은",
            "address": "경기도 고양시 덕양구 으뜸로 130 (덕은동)",
            "latitude": "37.579508396875966",
            "longitude": "126.87023899255668"
        },
        {
            "name": "고양행신",
            "address": "경기도 고양시 덕양구 충장로 126 (행신동)",
            "latitude": "37.623898",
            "longitude": "126.834287"
        },
        {
            "name": "고양원흥DT",
            "address": "경기도 고양시 덕양구 서오릉로663번길 8 (원흥동)",
            "latitude": "37.636819",
            "longitude": "126.869261"
        },
        {
            "name": "고양향동",
            "address": "경기도 고양시 덕양구 꽃마을로 4 (향동동)",
            "latitude": "37.598841426922625",
            "longitude": "126.8926607166853"
        },
        {
            "name": "지축역",
            "address": "경기도 고양시 덕양구 지축로 56 (지축동)",
            "latitude": "37.649902287279666",
            "longitude": "126.91431004232291"
        },
        {
            "name": "화정호국로",
            "address": "경기도 고양시 덕양구 화수로14번길 72 (화정동)",
            "latitude": "37.641816368002175",
            "longitude": "126.82959613089208"
        },
        {
            "name": "신흥역",
            "address": "경기도 성남시 수정구 산성대로 267 (신흥동)",
            "latitude": "37.440935",
            "longitude": "127.146642"
        },
        {
            "name": "성남위례",
            "address": "경기도 성남시 수정구 위례광장로 104 (창곡동)",
            "latitude": "37.472839",
            "longitude": "127.141062"
        },
        {
            "name": "성남이마트",
            "address": "경기도 성남시 수정구 수정로 201 (태평1동) 신세계쉐덴",
            "latitude": "37.4442471",
            "longitude": "127.14145710000002"
        },
        {
            "name": "가천대학교",
            "address": "경기도 성남시 수정구 성남대로 1342 (복정동)",
            "latitude": "37.44941",
            "longitude": "127.1272"
        },
        {
            "name": "수진역",
            "address": "경기도 성남시 수정구 산성대로 223 (신흥동) 1층",
            "latitude": "37.4389903651714",
            "longitude": "127.14224989005"
        },
        {
            "name": "성남태평",
            "address": "경기도 성남시 수정구 수정로 149 (태평동) 1~2층",
            "latitude": "37.442561275669",
            "longitude": "127.136588869764"
        },
        {
            "name": "판교아이스퀘어",
            "address": "경기도 성남시 수정구 창업로 18(시흥동)",
            "latitude": "37.41302843",
            "longitude": "127.098155483"
        },
        {
            "name": "판교위든타워",
            "address": "경기도 성남시 수정구 금토로80번길 56 (금토동)",
            "latitude": "37.40684035750497",
            "longitude": "127.09006870328186"
        },
        {
            "name": "성남모란삼성",
            "address": "경기도 성남시 수정구 산성대로 81 (수진동)",
            "latitude": "37.4339085932107",
            "longitude": "127.127859353725"
        },
        {
            "name": "남위례역",
            "address": "경기도 성남시 수정구 위례광장로 9-9 (창곡동)",
            "latitude": "37.4646",
            "longitude": "127.14142"
        },
        {
            "name": "판교놀유니버스",
            "address": "경기도 성남시 수정구 금토로 70 (금토동)",
            "latitude": "37.405652966500696",
            "longitude": "127.08746383906066"
        },
        {
            "name": "판교제2테크노밸리",
            "address": "경기도 성남시 수정구 창업로 54 (시흥동)",
            "latitude": "37.41108510155048",
            "longitude": "127.09463155093412"
        },
        {
            "name": "여주DT",
            "address": "경기도 여주시 세종로 358 (점봉동)_1",
            "latitude": "37.26613937",
            "longitude": "127.638535833"
        },
        {
            "name": "여주P.아울렛입구",
            "address": "경기도 여주시 명품로 360 2004호 (상거동)",
            "latitude": "37.24051058",
            "longitude": "127.611900111"
        },
        {
            "name": "여주P.아울렛",
            "address": "경기도 여주시 명품로 360 2400호 (상거동)",
            "latitude": "37.242436232",
            "longitude": "127.612394662"
        },
        {
            "name": "여주프리미엄빌리지",
            "address": "경기도 여주시 명품1로 22-2 (상거동)",
            "latitude": "37.2426426001696",
            "longitude": "127.615343156492"
        },
        {
            "name": "여주남한강DT",
            "address": "경기도 여주시 강변북로 11 (천송동)",
            "latitude": "37.3004139931102",
            "longitude": "127.648161642318"
        },
        {
            "name": "여주자유CC",
            "address": "경기도 여주시 가남읍 자유그린길 69",
            "latitude": "37.20895593135141",
            "longitude": "127.5704623911116"
        },
        {
            "name": "서여주IC DT",
            "address": "경기도 여주시 세종대왕면 중부대로 2685 중부대로 2685",
            "latitude": "37.298135321397",
            "longitude": "127.602933616704"
        },
        {
            "name": "평택비전",
            "address": "경기도 평택시 비전5로 20-24 (비전동)",
            "latitude": "36.99882806023261",
            "longitude": "127.11426413898152"
        },
        {
            "name": "평택서정DT",
            "address": "경기도 평택시 경기대로 1353 (서정동)",
            "latitude": "37.066066",
            "longitude": "127.063519"
        },
        {
            "name": "평택안중DT",
            "address": "경기도 평택시 안중읍 서동대로 1459",
            "latitude": "36.99081604230166",
            "longitude": "126.91337572053996"
        },
        {
            "name": "평택로데오",
            "address": "경기도 평택시 중앙2로 13 (평택동)",
            "latitude": "36.99183",
            "longitude": "127.0884"
        },
        {
            "name": "평택AK플라자",
            "address": "경기도 평택시 평택로 51 (평택동) 평택역",
            "latitude": "36.99189",
            "longitude": "127.085398"
        },
        {
            "name": "평택송탄",
            "address": "경기도 평택시 관광특구로 38 (서정동)",
            "latitude": "37.06659128238811",
            "longitude": "127.06304394773583"
        },
        {
            "name": "평택독곡DT",
            "address": "경기도 평택시 경기대로 1600 (독곡동)",
            "latitude": "37.08708158627897",
            "longitude": "127.06311996274557"
        },
        {
            "name": "평택이충DT",
            "address": "경기도 평택시 청원로 1388 (이충동)",
            "latitude": "37.052009",
            "longitude": "127.077063"
        },
        {
            "name": "평택죽백DT",
            "address": "경기도 평택시 만세로 1707 (죽백동)",
            "latitude": "37.013806597867",
            "longitude": "127.113461238319"
        },
        {
            "name": "평택청북DT",
            "address": "경기도 평택시 청북읍 안청로2길 86",
            "latitude": "37.0201732740776",
            "longitude": "126.915001051696"
        },
        {
            "name": "평택고덕에듀타운",
            "address": "경기도 평택시 고덕로 245 (고덕동)",
            "latitude": "37.036367066190806",
            "longitude": "127.02738305260855"
        },
        {
            "name": "평택대DT",
            "address": "경기도 평택시 서동대로 3847 (용이동)",
            "latitude": "36.9933627",
            "longitude": "127.1346334"
        },
        {
            "name": "평택고덕",
            "address": "경기도 평택시 고덕면 고덕여염9길 38",
            "latitude": "37.04023606708466",
            "longitude": "127.05118600287514"
        },
        {
            "name": "평택이마트",
            "address": "경기도 평택시 영신로 29 (지제동)",
            "latitude": "37.020935196361826",
            "longitude": "127.07601087256849"
        },
        {
            "name": "평택안중서동대로DT",
            "address": "경기도 평택시 안중읍 서동대로 1724",
            "latitude": "36.9907209035009",
            "longitude": "126.941388744278"
        },
        {
            "name": "평택세교DT",
            "address": "경기도 평택시 경기대로 625 (세교동)",
            "latitude": "37.007340586669855",
            "longitude": "127.07879779759615"
        },
        {
            "name": "평택팽성DT",
            "address": "경기도 평택시 팽성읍 팽성로 221 경기도 평택시 팽성읍 팽성로 221",
            "latitude": "36.95483635792418",
            "longitude": "127.05995668670255"
        },
        {
            "name": "평택비전DT",
            "address": "경기도 평택시 비전4로 180 (비전동)",
            "latitude": "37.011253841642144",
            "longitude": "127.10463089994097"
        },
        {
            "name": "주엽강선",
            "address": "경기도 고양시 일산서구 중앙로 1371 (주엽동, 강선마을13단지아파트)",
            "latitude": "37.6663259773628",
            "longitude": "126.76678869014237"
        },
        {
            "name": "일산가로수길",
            "address": "경기도 고양시 일산서구 주엽로 80 (대화동)",
            "latitude": "37.6657119408568",
            "longitude": "126.75717935238349"
        },
        {
            "name": "일산가구단지",
            "address": "경기도 고양시 일산서구 하이파크2로 67 (덕이동)",
            "latitude": "37.69956957737873",
            "longitude": "126.75667208933966"
        },
        {
            "name": "일산덕이DT",
            "address": "경기도 고양시 일산서구 탄중로 106 (덕이동)",
            "latitude": "37.692057815057964",
            "longitude": "126.75672498232094"
        },
        {
            "name": "일산후곡",
            "address": "경기도 고양시 일산서구 일산로 541 (일산동)",
            "latitude": "37.6773867",
            "longitude": "126.76756990000001"
        },
        {
            "name": "스타필드마켓킨텍스",
            "address": "경기도 고양시 일산서구 킨텍스로 171",
            "latitude": "37.661585014852534",
            "longitude": "126.74418205003751"
        },
        {
            "name": "일산탄현제니스",
            "address": "경기도 고양시 일산서구 일현로 97-11 (일산위브더제니스스퀘어1동147~151)",
            "latitude": "37.69411689181986",
            "longitude": "126.76354110948799"
        },
        {
            "name": "대화역",
            "address": "경기도 고양시 일산서구 중앙로 1559, 시티타워 1~2층 (대화동)",
            "latitude": "37.6753761",
            "longitude": "126.7481894"
        },
        {
            "name": "일산주엽",
            "address": "경기도 고양시 일산서구 중앙로 1420, 1층 (주엽동)",
            "latitude": "37.669903",
            "longitude": "126.762657"
        },
        {
            "name": "현대킨텍스",
            "address": "경기도 고양시 일산서구 호수로 817 (대화동)",
            "latitude": "37.668128",
            "longitude": "126.751207"
        },
        {
            "name": "문촌사거리",
            "address": "경기도 고양시 일산서구 중앙로 1470 (주엽동)",
            "latitude": "37.672648304725364",
            "longitude": "126.75661266760485"
        },
        {
            "name": "일산탄현동",
            "address": "경기도 고양시 일산서구 일현로 91 (탄현동)",
            "latitude": "37.6951672",
            "longitude": "126.7644783"
        },
        {
            "name": "풍무역DT",
            "address": "경기도 김포시 김포대로 657 (풍무동)",
            "latitude": "37.610369792",
            "longitude": "126.737528226"
        },
        {
            "name": "풍무사거리DT",
            "address": "경기도 김포시 풍무로 137",
            "latitude": "37.607844974",
            "longitude": "126.72283694"
        },
        {
            "name": "김포아이앤씨",
            "address": "경기도 김포시 태장로 779 (장기동)",
            "latitude": "37.638769",
            "longitude": "126.680464"
        },
        {
            "name": "김포구래",
            "address": "경기도 김포시 김포한강4로 487 (구래동, 한강신도시 반도유보라 4차)",
            "latitude": "37.645803",
            "longitude": "126.629073"
        },
        {
            "name": "김포장기커낼",
            "address": "경기도 김포시 김포한강2로 41 (장기동, e편한세상 캐널시티)",
            "latitude": "37.63960023453895",
            "longitude": "126.67764807769912"
        },
        {
            "name": "김포감정DT",
            "address": "경기도 김포시 중봉로 27 (감정동)",
            "latitude": "37.624786",
            "longitude": "126.696429"
        },
        {
            "name": "김포운양",
            "address": "경기도 김포시 김포한강11로 288-32",
            "latitude": "37.6543091",
            "longitude": "126.6841727"
        },
        {
            "name": "김포이마트",
            "address": "경기도 김포시 김포한강7로 71",
            "latitude": "37.644436737352",
            "longitude": "126.628229553273"
        },
        {
            "name": "김포풍무DT",
            "address": "경기도 김포시 풍무로 45 (풍무동)",
            "latitude": "37.600112",
            "longitude": "126.720441"
        },
        {
            "name": "김포시청",
            "address": "경기도 김포시 사우중로 35 (사우동)",
            "latitude": "37.618396",
            "longitude": "126.717912"
        },
        {
            "name": "김포장기",
            "address": "경기도 김포시 김포한강4로 117, 홍우프라자 102~105호 (장기동)",
            "latitude": "37.644239",
            "longitude": "126.667908"
        },
        {
            "name": "김포통진DT",
            "address": "경기도 김포시 통진읍 김포대로 2026",
            "latitude": "37.682933887288634",
            "longitude": "126.61909971571191"
        },
        {
            "name": "김포현대아울렛3층",
            "address": "경기도 김포시 고촌읍 아라육로152번길 100",
            "latitude": "37.598553606371226",
            "longitude": "126.78560545361132"
        },
        {
            "name": "김포구래DT",
            "address": "경기도 김포시 양촌읍 봉수대로 1871",
            "latitude": "37.63477683875019",
            "longitude": "126.627616055273"
        },
        {
            "name": "김포석모DT",
            "address": "경기도 김포시 양촌읍 김포한강4로301 1,2층",
            "latitude": "37.651278880898836",
            "longitude": "126.64987998921725"
        },
        {
            "name": "김포걸포",
            "address": "경기도 김포시 걸포2로 83 (걸포동, 한강메트로자이1단지)",
            "latitude": "37.63188944919693",
            "longitude": "126.70226504687171"
        },
        {
            "name": "김포애기봉생태공원",
            "address": "경기도 김포시 월곶면 평화공원로 289",
            "latitude": "37.75543683447103",
            "longitude": "126.59539467459582"
        },
        {
            "name": "김포양촌역DT",
            "address": "경기도 김포시 양촌읍 김포한강10로 236 구래리 259-1, 260, 262, 262-1 , 262-2, 260-6, 260-7",
            "latitude": "37.64778288069669",
            "longitude": "126.61927363670462"
        },
        {
            "name": "김포마산역",
            "address": "경기도 김포시 김포한강8로 172 (마산동)",
            "latitude": "37.637468539944365",
            "longitude": "126.64441590603208"
        },
        {
            "name": "김포한강로DT",
            "address": "경기도 김포시 양촌읍 김포한강4로 257",
            "latitude": "37.65075236331756",
            "longitude": "126.65465311919966"
        },
        {
            "name": "부천상동역",
            "address": "경기도 부천시 원미구 길주로 105 (상동)",
            "latitude": "37.50621",
            "longitude": "126.75427"
        },
        {
            "name": "스타필드부천",
            "address": "경기도 부천시 소사구 옥길로 1 (옥길동)",
            "latitude": "37.461162409103956",
            "longitude": "126.8135100661429"
        },
        {
            "name": "부천옥길",
            "address": "경기도 부천시 소사구 옥길로 118 (옥길동)",
            "latitude": "37.467655743678904",
            "longitude": "126.82331717690282"
        },
        {
            "name": "부천심곡DT",
            "address": "경기도 부천시 원미구 부천로 97 (심곡동)",
            "latitude": "37.49302677958507",
            "longitude": "126.78450527950969"
        },
        {
            "name": "뉴코아부천",
            "address": "경기도 부천시 원미구 송내대로 239 (상동)",
            "latitude": "37.504279",
            "longitude": "126.756992"
        },
        {
            "name": "중동이마트",
            "address": "경기도 부천시 원미구 석천로 188 (중동)",
            "latitude": "37.50406453617466",
            "longitude": "126.76354523210646"
        },
        {
            "name": "부천중동DT",
            "address": "경기도 부천시 원미구 부흥로 193 (중동)",
            "latitude": "37.4963743",
            "longitude": "126.76420000000007"
        },
        {
            "name": "부천신중동역",
            "address": "경기도 부천시 원미구 길주로 281 (중동)",
            "latitude": "37.5037646",
            "longitude": "126.77414390000001"
        },
        {
            "name": "역곡역DT",
            "address": "경기도 부천시 소사구 경인로 485 (괴안동)",
            "latitude": "37.4835239",
            "longitude": "126.8093104"
        },
        {
            "name": "부천중동",
            "address": "경기도 부천시 원미구 신흥로 161 (중동)",
            "latitude": "37.497976",
            "longitude": "126.77702"
        },
        {
            "name": "부천시청역",
            "address": "경기도 부천시 원미구 길주로 181 (중동)",
            "latitude": "37.50515528927381",
            "longitude": "126.7626907359831"
        },
        {
            "name": "현대중동",
            "address": "경기도 부천시 원미구 길주로 180 (중동)",
            "latitude": "37.50451371486611",
            "longitude": "126.76065138080334"
        },
        {
            "name": "부천플레이도시",
            "address": "경기도 부천시 원미구 조마루로 2 (상동)",
            "latitude": "37.50030232896319",
            "longitude": "126.74385119789906"
        },
        {
            "name": "송내역",
            "address": "경기도 부천시 원미구 부일로 204 (상동)",
            "latitude": "37.488389",
            "longitude": "126.752604"
        },
        {
            "name": "부천상동",
            "address": "경기도 부천시 원미구 상동로 87 (상동)",
            "latitude": "37.50535748795345",
            "longitude": "126.75255373808836"
        },
        {
            "name": "부천상일로",
            "address": "경기도 부천시 원미구 상일로 120 (상동)",
            "latitude": "37.49123838780798",
            "longitude": "126.7556251093875"
        },
        {
            "name": "중동삼성",
            "address": "경기도 부천시 원미구 길주로 254 (중동)",
            "latitude": "37.5031811685761",
            "longitude": "126.770616064676"
        },
        {
            "name": "부천역",
            "address": "경기도 부천시 소사구 부천로 1 (심곡본동)",
            "latitude": "37.48417556967896",
            "longitude": "126.78268773567485"
        },
        {
            "name": "부천옥길DT",
            "address": "경기도 부천시 소사구 양지로 119 (옥길동)",
            "latitude": "37.4720219",
            "longitude": "126.8160956"
        },
        {
            "name": "부천상동DT",
            "address": "경기도 부천시 원미구 평천로 611 (상동)",
            "latitude": "37.5156818312932",
            "longitude": "126.758575497719"
        },
        {
            "name": "부천원종DT",
            "address": "경기도 부천시 오정구 소사로 826 (원종동)",
            "latitude": "37.5297339526141",
            "longitude": "126.80545118712157"
        },
        {
            "name": "부천중동센트럴",
            "address": "경기도 부천시 원미구 소향로 181 (중동, 센트럴파크 푸르지오)",
            "latitude": "37.501698",
            "longitude": "126.768647"
        },
        {
            "name": "춘의역DT",
            "address": "경기도 부천시 원미구 길주로 386 (춘의동)",
            "latitude": "37.50308",
            "longitude": "126.78546"
        },
        {
            "name": "신중동",
            "address": "경기도 부천시 원미구 신흥로 187 (중동)",
            "latitude": "37.5003106",
            "longitude": "126.7764634"
        },
        {
            "name": "소사역",
            "address": "경기도 부천시 소사구 경인옛로 25 (소사본동, 부천 한신더휴 메트로)",
            "latitude": "37.48157573481657",
            "longitude": "126.79505290327361"
        },
        {
            "name": "광교갤러리아9F",
            "address": "경기도 수원시 영통구 광교호수공원로 320 (하동)",
            "latitude": "37.285343464162516",
            "longitude": "127.05723519552484"
        },
        {
            "name": "수원법조타운",
            "address": "경기도 수원시 영통구 광교중앙로248번길 7-2 (하동)",
            "latitude": "37.29184",
            "longitude": "127.067164"
        },
        {
            "name": "광교역",
            "address": "경기도 수원시 영통구 대학로 47 (이의동)",
            "latitude": "37.30058563335636",
            "longitude": "127.04410102879643"
        },
        {
            "name": "광교엘포트R",
            "address": "경기도 수원시 영통구 광교중앙로 145 (이의동)",
            "latitude": "37.2869954",
            "longitude": "127.05778150000003"
        },
        {
            "name": "영통R",
            "address": "경기도 수원시 영통구 덕영대로 1566 (영통동)",
            "latitude": "37.2456050375822",
            "longitude": "127.062158661007"
        },
        {
            "name": "수원망포DT",
            "address": "경기도 수원시 영통구 덕영대로 1467",
            "latitude": "37.24582770000001",
            "longitude": "127.05133999999998"
        },
        {
            "name": "수원광교",
            "address": "경기도 수원시 영통구 센트럴타운로 85 (이의동) 광교c1호반베르디움",
            "latitude": "37.29026200648969",
            "longitude": "127.04976194305105"
        },
        {
            "name": "수원트레이더스",
            "address": "경기도 수원시 영통구 삼성로 2 트레이더스수원점 (신동)",
            "latitude": "37.245803",
            "longitude": "127.047795"
        },
        {
            "name": "경희대국제캠퍼스",
            "address": "경기도 수원시 영통구 덕영대로 1695 (영통동)",
            "latitude": "37.247951",
            "longitude": "127.076749"
        },
        {
            "name": "수원망포역",
            "address": "경기도 수원시 영통구 영통로 195 (망포동)",
            "latitude": "37.2452115522263",
            "longitude": "127.056207367864"
        },
        {
            "name": "광교이마트",
            "address": "경기도 수원시 영통구 광교로 191(이의동)",
            "latitude": "37.29661973601996",
            "longitude": "127.04754991685652"
        },
        {
            "name": "수원영통",
            "address": "경기도 수원시 영통구 봉영로 1617, 훼미리타워 1층 (영통동)",
            "latitude": "37.2556084236876",
            "longitude": "127.074645342368"
        },
        {
            "name": "수원매탄",
            "address": "경기도 수원시 영통구 효원로 400 (매탄동)",
            "latitude": "37.2580532633873",
            "longitude": "127.045423420223"
        },
        {
            "name": "광교갤러리아6F",
            "address": "경기도 수원시 영통구 광교중앙로 124 (하동)",
            "latitude": "37.28539753464783",
            "longitude": "127.05721832132485"
        },
        {
            "name": "광교더샵레이크시티",
            "address": "경기도 수원시 영통구 광교호수공원로 20 (원천동)",
            "latitude": "37.2709141105943",
            "longitude": "127.06016412494561"
        },
        {
            "name": "수원청명",
            "address": "경기도 수원시 영통구 청명로 88 (영통동)",
            "latitude": "37.25446",
            "longitude": "127.078069"
        },
        {
            "name": "광교SK뷰레이크41F",
            "address": "경기도 수원시 영통구 법조로 25 (하동)",
            "latitude": "37.28749328769524",
            "longitude": "127.0600730093509"
        },
        {
            "name": "안산한양대",
            "address": "경기도 안산시 상록구 성안길 82-3, B동 1층 (사동)",
            "latitude": "37.30076926817003",
            "longitude": "126.83815395983674"
        },
        {
            "name": "안산한대앞역",
            "address": "경기도 안산시 상록구 광덕1로 379, 한남빌딩 1~2층 (이동)",
            "latitude": "37.30851298179862",
            "longitude": "126.85137186824745"
        },
        {
            "name": "안산삼성",
            "address": "경기도 안산시 상록구 광덕1로 342 (이동), 1층 일부",
            "latitude": "37.306449509095856",
            "longitude": "126.8477466214952"
        },
        {
            "name": "경기양평",
            "address": "경기도 양평군 양평읍 시민로 75",
            "latitude": "37.491066224",
            "longitude": "127.499953233"
        },
        {
            "name": "더양평DT",
            "address": "경기도 양평군 양평읍 양근로 76",
            "latitude": "37.497005095",
            "longitude": "127.481752371"
        },
        {
            "name": "용인죽전",
            "address": "경기도 용인시 수지구 용구대로 2750 (죽전동, 죽전 효성해링턴 플레이스)",
            "latitude": "37.3313521",
            "longitude": "127.1091828"
        },
        {
            "name": "죽전단국대",
            "address": "경기도 용인시 수지구 죽전로168번길 18 (죽전동)",
            "latitude": "37.3244016",
            "longitude": "127.12494279999998"
        },
        {
            "name": "수지동천",
            "address": "경기도 용인시 수지구 손곡로",
            "latitude": "37.335988",
            "longitude": "127.09101"
        },
        {
            "name": "죽전",
            "address": "경기도 용인시 수지구 현암로 140 (죽전동)",
            "latitude": "37.331506",
            "longitude": "127.12479"
        },
        {
            "name": "수지성복DT",
            "address": "경기도 용인시 수지구 성복2로 55 (성복동)",
            "latitude": "37.314048",
            "longitude": "127.079162"
        },
        {
            "name": "광교중앙로",
            "address": "경기도 용인시 수지구 광교마을로 41 (상현동)",
            "latitude": "37.29895843016633",
            "longitude": "127.06933919398742"
        },
        {
            "name": "스타필드마켓죽전",
            "address": "경기도 용인시 수지구 포은대로 552, 스타필드마켓 죽전점 1층 (죽전동)",
            "latitude": "37.3253735",
            "longitude": "127.1099255"
        },
        {
            "name": "신세계사우스시티",
            "address": "경기도 용인시 수지구 포은대로 536 (죽전동) 3층",
            "latitude": "37.32500393",
            "longitude": "127.1081332"
        },
        {
            "name": "수지이마트",
            "address": "경기도 용인시 수지구 수지로 203 (신봉동)",
            "latitude": "37.31965",
            "longitude": "127.083677"
        },
        {
            "name": "수지풍덕천",
            "address": "경기도 용인시 수지구 수지로296번길 51-11, 비즈마루빌딩 1층 101호 (풍덕천동)",
            "latitude": "37.322169",
            "longitude": "127.0952655"
        },
        {
            "name": "용인고기동유원지",
            "address": "경기도 용인시 수지구 고기로 487 (고기동)",
            "latitude": "37.359607",
            "longitude": "127.055438"
        },
        {
            "name": "수지구청역",
            "address": "경기도 용인시 수지구 풍덕천로 119 (풍덕천동) 111,112,113,206,207호",
            "latitude": "37.323104564866",
            "longitude": "127.09488475046"
        },
        {
            "name": "수지성복역",
            "address": "경기도 용인시 수지구 성복2로 37 (성복동)",
            "latitude": "37.3127961",
            "longitude": "127.0802009"
        },
        {
            "name": "파주P.아울렛1F",
            "address": "경기도 파주시 탄현면 필승로 200",
            "latitude": "37.769258",
            "longitude": "126.6947"
        },
        {
            "name": "파주야당역",
            "address": "경기도 파주시 경의로 1066",
            "latitude": "37.712142",
            "longitude": "126.759475"
        },
        {
            "name": "파주금촌역",
            "address": "경기도 파주시 문화로 109 (금촌동)",
            "latitude": "37.764081",
            "longitude": "126.774205"
        },
        {
            "name": "파주금릉역",
            "address": "경기도 파주시 금릉역로 84, 청원센트럴타워 1층 (금촌동)",
            "latitude": "37.752207",
            "longitude": "126.765613"
        },
        {
            "name": "파주운정",
            "address": "경기도 파주시 와석순환로 135",
            "latitude": "37.71203",
            "longitude": "126.744499"
        },
        {
            "name": "파주P.아울렛3F",
            "address": "경기도 파주시 탄현면 필승로 200 1312호",
            "latitude": "37.768974",
            "longitude": "126.69632"
        },
        {
            "name": "파주문산DT",
            "address": "경기도 파주시 파주읍 통일로 1555 (봉서리)",
            "latitude": "37.8464380469309",
            "longitude": "126.789040084356"
        },
        {
            "name": "파주가람",
            "address": "경기도 파주시 가람로 89 (와동동)",
            "latitude": "37.735972140257",
            "longitude": "126.759841042896"
        },
        {
            "name": "파주산내",
            "address": "경기도 파주시 청암로17번길 29 (목동동)",
            "latitude": "37.728707",
            "longitude": "126.735514"
        },
        {
            "name": "파주교하",
            "address": "경기도 파주시 청석로 256 (동패동)",
            "latitude": "37.7246852217901",
            "longitude": "126.717740601475"
        },
        {
            "name": "파주LGD",
            "address": "경기도 파주시 월롱면 엘지로 245 (상동)",
            "latitude": "37.8098789765584",
            "longitude": "126.76770065141242"
        },
        {
            "name": "파주야당DT",
            "address": "경기도 파주시 경의로 966 (야당동)",
            "latitude": "37.70346",
            "longitude": "126.75964"
        },
        {
            "name": "파주운정이마트",
            "address": "경기도 파주시 한울로 123 (동패동)",
            "latitude": "37.710647",
            "longitude": "126.74545"
        },
        {
            "name": "지행역",
            "address": "경기도 동두천시 지행로 55 (지행동)",
            "latitude": "37.89270418557808",
            "longitude": "127.05348152566178"
        },
        {
            "name": "동두천DT",
            "address": "경기도 동두천시 평화로 2254 (지행동)",
            "latitude": "37.889024414881135",
            "longitude": "127.0570143743728"
        },
        {
            "name": "동두천송내DT",
            "address": "경기도 동두천시 평화로 2163 (송내동)",
            "latitude": "37.880808446841186",
            "longitude": "127.05561559032506"
        }
    ]
}