{
    "location": "대구",
    "count": 93,
    "date": "2025-07-09",
    "item": [
        {
            "name": "대구영대병원역DT",
            "address": "대구광역시 남구 봉덕로 25 (봉덕동)",
            "latitude": "35.845522",
            "longitude": "128.593536"
        },
        {
            "name": "대구앞산DT",
            "address": "대구광역시 남구 현충로 32 (대명동)",
            "latitude": "35.835516",
            "longitude": "128.579871"
        },
        {
            "name": "영남대학교의료원영의관",
            "address": "대구광역시 남구 현충로 170 (대명동)",
            "latitude": "35.84594789200674",
            "longitude": "128.58521684051493"
        },
        {
            "name": "대구가톨릭대학교병원",
            "address": "대구광역시 남구 두류공원로17길 33 (대명동)",
            "latitude": "35.84339006877753",
            "longitude": "128.56742153199514"
        },
        {
            "name": "영남대학교의료원",
            "address": "대구광역시 남구 현충로 170 (대명동)",
            "latitude": "35.8473627403431",
            "longitude": "128.585110856193"
        },
        {
            "name": "대구앞산스카이타운",
            "address": "대구광역시 남구 앞산순환로 375 (대명동)",
            "latitude": "35.8323609810316",
            "longitude": "128.566888601875"
        },
        {
            "name": "계명대동산병원",
            "address": "대구광역시 달서구 달구벌대로 1035 (신당동)",
            "latitude": "35.853811",
            "longitude": "128.480276"
        },
        {
            "name": "대구죽전역",
            "address": "대구광역시 달서구 와룡로 169",
            "latitude": "35.8487448364573",
            "longitude": "128.536579252122"
        },
        {
            "name": "대구월곡DT",
            "address": "대구광역시 달서구 월곡로 225 (상인동)",
            "latitude": "35.814866",
            "longitude": "128.541057"
        },
        {
            "name": "대구광장",
            "address": "대구광역시 달서구 달구벌대로 1710 (두류동)",
            "latitude": "35.855770",
            "longitude": "128.552811"
        },
        {
            "name": "대구월촌역",
            "address": "대구광역시 달서구 월배로 315 (송현동)",
            "latitude": "35.824025",
            "longitude": "128.545226"
        },
        {
            "name": "대구진천역",
            "address": "대구광역시 달서구 월배로 91 (진천동)",
            "latitude": "35.814395",
            "longitude": "128.524377"
        },
        {
            "name": "대구도원DT",
            "address": "대구광역시 달서구 상화로 314 (도원동)",
            "latitude": "35.807812417",
            "longitude": "128.548116483"
        },
        {
            "name": "대구월성",
            "address": "대구광역시 달서구 조암로 41 (월성동)",
            "latitude": "35.824320",
            "longitude": "128.525727"
        },
        {
            "name": "대구수목원",
            "address": "대구광역시 달서구 화암로 379",
            "latitude": "35.807252081",
            "longitude": "128.520264479"
        },
        {
            "name": "대구성서IC DT",
            "address": "대구광역시 달서구 달구벌대로 1393",
            "latitude": "35.8507998",
            "longitude": "128.52026039999998"
        },
        {
            "name": "대구감삼DT",
            "address": "대구광역시 달서구 와룡로 131",
            "latitude": "35.8443842",
            "longitude": "128.5366553"
        },
        {
            "name": "대구두류DT",
            "address": "대구광역시 달서구 달구벌대로 1798 (두류동)",
            "latitude": "35.85894914827019",
            "longitude": "128.56183032940754"
        },
        {
            "name": "대구상인DT",
            "address": "대구광역시 달서구 월곡로 334 (상인동)",
            "latitude": "35.8227353989327",
            "longitude": "128.533730264967"
        },
        {
            "name": "대구계명대",
            "address": "대구광역시 달서구 계대동문로 13 (신당동)",
            "latitude": "35.85567272",
            "longitude": "128.4937254"
        },
        {
            "name": "대구성서",
            "address": "대구광역시 달서구 이곡공원로 26, 이곡메디컬빌딩 (이곡동)",
            "latitude": "35.855292",
            "longitude": "128.510127"
        },
        {
            "name": "대구서부정류장역",
            "address": "대구광역시 달서구 구마로 265 (성당동)",
            "latitude": "35.837881",
            "longitude": "128.556926"
        },
        {
            "name": "대구이월드",
            "address": "대구광역시 달서구 두류공원로 200 (두류동)",
            "latitude": "35.8540248",
            "longitude": "128.5634167"
        },
        {
            "name": "대구대천",
            "address": "대구광역시 달서구 조암남로32길 2 (대천동)",
            "latitude": "35.8172418265049",
            "longitude": "128.517839365084"
        },
        {
            "name": "대구감삼빌리브스카이",
            "address": "대구광역시 달서구 와룡로 186 (감삼동, 빌리브 스카이 주상복합)",
            "latitude": "35.8494020127818",
            "longitude": "128.537990459441"
        },
        {
            "name": "대구월성네거리",
            "address": "대구광역시 달서구 조암로 5 (월성동)",
            "latitude": "35.825419",
            "longitude": "128.529254"
        },
        {
            "name": "대구상인역",
            "address": "대구광역시 달서구 월배로 210 (상인동)",
            "latitude": "35.8182768",
            "longitude": "128.53656920000003"
        },
        {
            "name": "신세계대구3F(티바나)",
            "address": "대구광역시 동구 동부로 149 신세계백화점 대구점 3층",
            "latitude": "35.877767",
            "longitude": "128.628498"
        },
        {
            "name": "신세계대구8FR",
            "address": "대구광역시 동구 동부로 149 신세계백화점 대구점 8층",
            "latitude": "35.877812",
            "longitude": "128.628453"
        },
        {
            "name": "동대구로DT",
            "address": "대구광역시 동구 동대구로 422 (신천동)",
            "latitude": "35.868133",
            "longitude": "128.627219"
        },
        {
            "name": "대구팔공산",
            "address": "대구광역시 동구 파계로 650",
            "latitude": "35.9878685",
            "longitude": "128.636347"
        },
        {
            "name": "대구봉무",
            "address": "대구광역시 동구 팔공로51길 15-11 (봉무동)",
            "latitude": "35.921942",
            "longitude": "128.639708"
        },
        {
            "name": "동대구터미널",
            "address": "대구광역시 동구 동부로30길 12 (신천동)",
            "latitude": "35.87627938661981",
            "longitude": "128.62873447909175"
        },
        {
            "name": "대구동촌유원지",
            "address": "대구광역시 동구 효동로2길 45 (효목동)",
            "latitude": "35.88011",
            "longitude": "128.653159"
        },
        {
            "name": "반야월이마트",
            "address": "대구광역시 동구 안심로 389-2, 이마트 1층 (신서동)",
            "latitude": "35.870899",
            "longitude": "128.727397"
        },
        {
            "name": "대구방촌DT",
            "address": "대구광역시 동구 화랑로 389 (방촌동)",
            "latitude": "35.8773584999377",
            "longitude": "128.666495317362"
        },
        {
            "name": "대구신천DT",
            "address": "대구광역시 동구 동부로 78 (신천동)",
            "latitude": "35.874974",
            "longitude": "128.621066"
        },
        {
            "name": "대구팔공로DT",
            "address": "대구광역시 동구 팔공로 332 (봉무동)",
            "latitude": "35.9284602",
            "longitude": "128.6418299"
        },
        {
            "name": "대구율하",
            "address": "대구광역시 동구 안심로16길 47 (율하동)",
            "latitude": "35.8635367",
            "longitude": "128.6939265"
        },
        {
            "name": "대구각산역DT",
            "address": "대구광역시 동구 안심로 383",
            "latitude": "35.868908",
            "longitude": "128.7261214"
        },
        {
            "name": "대구연경DT",
            "address": "대구광역시 동구 동화천로 391 (지묘동)",
            "latitude": "35.942906865",
            "longitude": "128.630979003"
        },
        {
            "name": "대구파티마병원",
            "address": "대구광역시 동구 아양로 99 (신암동)",
            "latitude": "35.884156",
            "longitude": "128.623829"
        },
        {
            "name": "대구평리DT",
            "address": "대구광역시 서구 서대구로 89 (평리1동)",
            "latitude": "35.8659449872571",
            "longitude": "128.555319851164"
        },
        {
            "name": "대구두류역",
            "address": "대구광역시 서구 달구벌대로 1749 (내당동)",
            "latitude": "35.8578944050804",
            "longitude": "128.556313472538"
        },
        {
            "name": "대구수성도서관DT",
            "address": "대구광역시 수성구 화랑로 112 (만촌동)",
            "latitude": "35.872886",
            "longitude": "128.638935"
        },
        {
            "name": "대구그랜드호텔R",
            "address": "대구광역시 수성구 동대구로 305 (범어동)",
            "latitude": "35.857762109",
            "longitude": "128.625325193"
        },
        {
            "name": "국립대구박물관DT",
            "address": "대구광역시 수성구 청호로 318 (황금동)",
            "latitude": "35.845491",
            "longitude": "128.639059"
        },
        {
            "name": "대구수성네거리DT",
            "address": "대구광역시 수성구 들안로 342 (수성동4가)",
            "latitude": "35.86058",
            "longitude": "128.617977"
        },
        {
            "name": "대구중동DT",
            "address": "대구광역시 수성구 수성로 243 (중동)",
            "latitude": "35.847384",
            "longitude": "128.612529"
        },
        {
            "name": "대구중동네거리DT",
            "address": "대구광역시 수성구 청수로 51 (중동)",
            "latitude": "35.840917",
            "longitude": "128.613963"
        },
        {
            "name": "대구상동DT",
            "address": "대구광역시 수성구 무학로 29(상동)",
            "latitude": "35.8296424",
            "longitude": "128.6116932"
        },
        {
            "name": "대구황금DT",
            "address": "대구광역시 수성구 청수로 164 (지산동)",
            "latitude": "35.839069",
            "longitude": "128.625797"
        },
        {
            "name": "대구삼성화재",
            "address": "대구광역시 수성구 동대구로 401 (범어동) 삼성화재사옥",
            "latitude": "35.86609597321095",
            "longitude": "128.62628141735826"
        },
        {
            "name": "대구시지",
            "address": "대구광역시 수성구 달구벌대로 3216 (신매동)",
            "latitude": "35.8394934",
            "longitude": "128.7080427"
        },
        {
            "name": "대구만촌DT",
            "address": "대구광역시 수성구 달구벌대로 2636, , 853-25번지 (만촌동)",
            "latitude": "35.85633663569519",
            "longitude": "128.65023282237482"
        },
        {
            "name": "대구수성하이츠",
            "address": "대구광역시 수성구 수성로 393, 수성하이츠 1층 (수성동4가)",
            "latitude": "35.860423356",
            "longitude": "128.613581613"
        },
        {
            "name": "동아수성",
            "address": "대구광역시 수성구 지범로 191, 동아백화점수성점 1층 (범물동)",
            "latitude": "35.82116608776404",
            "longitude": "128.64012716345886"
        },
        {
            "name": "수성레이크",
            "address": "대구광역시 수성구 수성못길 4 (두산동)",
            "latitude": "35.825764",
            "longitude": "128.621814"
        },
        {
            "name": "대구범어제니스",
            "address": "대구광역시 수성구 달구벌대로 2435, 두산위브더제니스아파트 상가 1층 110호 (범어동)",
            "latitude": "35.858974",
            "longitude": "128.629542"
        },
        {
            "name": "대구두산DT",
            "address": "대구광역시 수성구 지범로 37 (두산동)",
            "latitude": "35.82728289340839",
            "longitude": "128.62584861733438"
        },
        {
            "name": "대구들안길DT",
            "address": "대구광역시 수성구 들안로 85 (상동)",
            "latitude": "35.837524",
            "longitude": "128.616360"
        },
        {
            "name": "대구만촌이마트",
            "address": "대구광역시 수성구 동원로 136 (만촌동)",
            "latitude": "35.87096",
            "longitude": "128.637546"
        },
        {
            "name": "대구월드컵대로DT",
            "address": "대구광역시 수성구 유니버시아드로 330 (욱수동)",
            "latitude": "35.829090666343625",
            "longitude": "128.70652346485585"
        },
        {
            "name": "대구신매역",
            "address": "대구광역시 수성구 고산로 102 (신매동)",
            "latitude": "35.8397152350583",
            "longitude": "128.704901867932"
        },
        {
            "name": "대구범어푸르지오",
            "address": "대구광역시 수성구 상록로 15 (범어동, 범어센트럴푸르지오)",
            "latitude": "35.861236",
            "longitude": "128.622831"
        },
        {
            "name": "대구계산",
            "address": "대구광역시 중구 달구벌대로415길 1 (계산동2가)",
            "latitude": "35.866429",
            "longitude": "128.589696"
        },
        {
            "name": "대구중앙로역",
            "address": "대구광역시 중구 국채보상로 582 (남일동)",
            "latitude": "35.87066921006088",
            "longitude": "128.594190019356"
        },
        {
            "name": "대구공평DT",
            "address": "대구광역시 중구 국채보상로 642 (동인동2가)",
            "latitude": "35.8695591195788",
            "longitude": "128.600678742141"
        },
        {
            "name": "반월당",
            "address": "대구광역시 중구 달구벌대로 2085 (덕산동) 동아쇼핑",
            "latitude": "35.866218567875165",
            "longitude": "128.59190604710486"
        },
        {
            "name": "동성로광장",
            "address": "대구광역시 중구 동성로 4 (동성로3가)",
            "latitude": "35.867319",
            "longitude": "128.594217"
        },
        {
            "name": "동성로로데오",
            "address": "대구광역시 중구 동성로5길 62 (삼덕동1가)",
            "latitude": "35.86723",
            "longitude": "128.597862"
        },
        {
            "name": "대구역",
            "address": "대구광역시 중구 태평로 160 (북성로1가)",
            "latitude": "35.874829",
            "longitude": "128.595024"
        },
        {
            "name": "대구종로고택",
            "address": "대구광역시 중구 중앙대로77길 22 (종로2가)",
            "latitude": "35.8684287",
            "longitude": "128.5924722"
        },
        {
            "name": "대구반월삼성",
            "address": "대구광역시 중구 달구벌대로 2095 (덕산동)",
            "latitude": "35.86614485770817",
            "longitude": "128.59304764369193"
        },
        {
            "name": "대구228중앙공원",
            "address": "대구광역시 중구 동성로2길 95 (동성로2가)",
            "latitude": "35.8701932",
            "longitude": "128.5969103"
        },
        {
            "name": "대구칠성DT",
            "address": "대구광역시 북구 중앙대로 524 (칠성동2가)",
            "latitude": "35.879674",
            "longitude": "128.596391"
        },
        {
            "name": "대구유통단지",
            "address": "대구광역시 북구 유통단지로8길 78 106호 (산격동)",
            "latitude": "35.905624",
            "longitude": "128.613347"
        },
        {
            "name": "대구칠곡대로DT",
            "address": "대구광역시 북구 칠곡중앙대로 348 (태전동)",
            "latitude": "35.9268512491585",
            "longitude": "128.547884538407"
        },
        {
            "name": "대구동천",
            "address": "대구광역시 북구 동천로 123",
            "latitude": "35.9425387",
            "longitude": "128.5604376"
        },
        {
            "name": "대구침산DT",
            "address": "대구광역시 북구 침산로 126 (침산동)",
            "latitude": "35.8874784",
            "longitude": "128.59183759999996"
        },
        {
            "name": "대구칠곡",
            "address": "대구광역시 북구 학정로 422 (구암동) 태을빌딩",
            "latitude": "35.9421792",
            "longitude": "128.5638788"
        },
        {
            "name": "경북대",
            "address": "대구광역시 북구 대학로 75 (산격동)",
            "latitude": "35.89232",
            "longitude": "128.608586"
        },
        {
            "name": "대구도남",
            "address": "대구광역시 북구 도남중앙로9길 1 (국우동)",
            "latitude": "35.9529187724058",
            "longitude": "128.583384789643"
        },
        {
            "name": "대구복현DT",
            "address": "대구광역시 북구 대학로 150 (복현동)",
            "latitude": "35.8967637",
            "longitude": "128.6146417"
        },
        {
            "name": "대구칠곡읍내DT",
            "address": "대구광역시 북구 칠곡중앙대로 631 (읍내동)",
            "latitude": "35.9518399",
            "longitude": "128.5531285"
        },
        {
            "name": "대구칠성이마트",
            "address": "대구광역시 북구 침산로 93 (칠성동2가)",
            "latitude": "35.8850726575735",
            "longitude": "128.589754735838"
        },
        {
            "name": "칠곡경북대학교병원",
            "address": "대구광역시 북구 호국로 807 (학정동)",
            "latitude": "35.95692179456557",
            "longitude": "128.56352451912872"
        },
        {
            "name": "대구금호",
            "address": "대구광역시 북구 한강로4길 9 (사수동)",
            "latitude": "35.8960395452115",
            "longitude": "128.514565076134"
        },
        {
            "name": "대구태전DT",
            "address": "대구광역시 북구 칠곡중앙대로 158 (태전동)",
            "latitude": "35.9099027471006",
            "longitude": "128.548729338399"
        },
        {
            "name": "대구테크노폴리스",
            "address": "대구광역시 달성군 유가면 테크노상업로 84 대경타워 105호, 106호, 107호",
            "latitude": "35.693334",
            "longitude": "128.459251"
        },
        {
            "name": "대구죽곡",
            "address": "대구광역시 달성군 달구벌대로 861 (다사읍)",
            "latitude": "35.859055",
            "longitude": "128.464166"
        },
        {
            "name": "대구현풍DT",
            "address": "대구광역시 달성군 현풍읍 비슬로 588",
            "latitude": "35.6915239371441",
            "longitude": "128.444761202446"
        },
        {
            "name": "대구국가산단DT",
            "address": "대구광역시 달성군 구지면 국가산단대로 260",
            "latitude": "35.6525288",
            "longitude": "128.4179717"
        }
    ]
}